Record Type,County,District,School,Status,Latitude,Longitude,Street Address,Street City,Street State,Street Zip
School,Alameda,Alameda County Office of Education,Alameda County Community,Active,37.658212,-122.097138,313 West Winton Ave.,Hayward,CA,94544-1136
School,Alameda,Alameda County Office of Education,Alameda County Juvenile Hall/Court,Active,37.712878,-122.111731,2500 Fairmont Ave.,San Leandro,CA,94578-1005
School,Alameda,Alameda County Office of Education,Alameda County Opportunity,Closed,37.658212,-122.097138,313 West Winton Ave.,Hayward,CA,94544-1136
School,Alameda,Alameda County Office of Education,Alameda County Special Education,Closed,,,685 A St.,Hayward,CA,94541
School,Alameda,Alameda County Office of Education,Alameda County Special Education,Active,37.658212,-122.097138,313 West Winton Ave.,Hayward,CA,94544-1136
School,Alameda,Alameda County Office of Education,Alternatives in Action,Active,37.764464,-122.195409,6221 East 17th St.,Oakland,CA,94621-4107
School,Alameda,Alameda County Office of Education,Aspire California College Preparatory Academy,Closed,37.868991,-122.278442,2125 Jefferson Ave.,Berkeley,CA,94703-1414
School,Alameda,Alameda County Office of Education,Aurum Preparatory Academy,Active,37.758631,-122.196044,1034 66th Ave.,Oakland,CA,94621-3536
School,Alameda,Alameda County Office of Education,Berkeley Trade & Tech. College,Closed,,,,,,
School,Alameda,Alameda County Office of Education,Buena Vista School (Girls),Closed,,,2200 Fairmont Dr.,San Leandro,CA,94578
School,Alameda,Alameda County Office of Education,Burke (William P.) Special Center,Merged,,,612 West A St.,Hayward,CA,94541
School,Alameda,Alameda County Office of Education,Canyon Valley Adult School,Closed,,,,,,
School,Alameda,Alameda County Office of Education,CCYR,Closed,Information Redacted,Information Redacted,Information Redacted,Oakland,CA,94606
School,Alameda,Alameda County Office of Education,Chabot Ranch,Closed,,,2500 Fairmont Dr.,San Leandro,CA,94578
School,Alameda,Alameda County Office of Education,Community School for Creative Education,Active,37.784648,-122.238637,2111 International Blvd.,Oakland,CA,94606-4903
School,Alameda,Alameda County Office of Education,Connecting Waters Charter - East Bay,Active,37.603623,-122.025305,703 C St.,Union City,CA,94587-2195
School,Alameda,Alameda County Office of Education,Cox Academy,Active,37.746513,-122.161825,9860 Sunnyside St.,Oakland,CA,94603-2750
School,Alameda,Alameda County Office of Education,East County Dch,Closed,,,7997 Vomac Rd.,Dublin,CA,94566
School,Alameda,Alameda County Office of Education,Envision Academy for Arts & Technology,Active,37.80452,-122.268155,1515 Webster St.,Oakland,CA,94612-3355
School,Alameda,Alameda County Office of Education,Epic Charter,Active,37.777049,-122.229602,1045 Derby Ave.,Oakland,CA,94601-2212
School,Alameda,Alameda County Office of Education,FAME Public Charter,Closed,37.521436,-121.993919,"39899 Balentine Dr., Ste. 335",Newark,CA,94560-5359
School,Alameda,Alameda County Office of Education,Hayward Collegiate Charter,Active,37.648124,-122.082394,166 West Harder Rd.,Hayward,CA,94544-2742
School,Alameda,Alameda County Office of Education,Juvenile Court Schools,Merged,,,2400 Fairmont Dr.,San Leandro,CA,94578
School,Alameda,Alameda County Office of Education,Koster/Whiteford Special Center,Merged,,,35725 Cedar Ave.,Newark,CA,94560
School,Alameda,Alameda County Office of Education,La Fleche (Rock) Special Center,Merged,,,6925 Chabot Rd.,Oakland,CA,94618
School,Alameda,Alameda County Office of Education,Las Vistas School,Closed,,,2200 Fairmont Dr.,San Leandro,CA,94578
School,Alameda,Alameda County Office of Education,Lazear Charter Academy,Active,37.776239,-122.232073,824 29th Ave.,Oakland,CA,94601-2205
School,Alameda,Alameda County Office of Education,Motta (Ronald) Special Center,Merged,,,40950 Chapel Way,Fremont,CA,94538
School,Alameda,Alameda County Office of Education,New Learning Grove Academy,Closed,Information Redacted,Information Redacted,Information Redacted,Dublin,CA,94568-5401
School,Alameda,Alameda County Office of Education,New Village Community Public Charter East Bay,Closed,,,,,,
School,Alameda,Alameda County Office of Education,Oakland Unity Middle,Active,37.759123,-122.190946,1180 70th Ave.,Oakland,CA,94621-3216
School,Alameda,Alameda County Office of Education,Opportunity Academy,Active,37.65851,-122.098346,313 West Winton Ave.,Hayward,CA,94544-1136
School,Alameda,Alameda County Office of Education,Roosevelt High (Defunct),Closed,,,,,,
School,Alameda,Alameda County Office of Education,School for School-Age Mothers,Merged,,,8151 Village Pkwy.,Dublin,CA,94568
School,Alameda,Alameda County Office of Education,Senior Camp,Closed,,,2600 Fairmont Dr.,San Leandro,CA,94578
School,Alameda,Alameda County Office of Education,Sequoia Deaf/Blind Program,Closed,,,685 A St.,Hayward,CA,94541
School,Alameda,Alameda County Office of Education,Snedigar Cottage,Closed,,,2100 Fairmont Dr.,San Leandro,CA,94578
School,Alameda,Alameda County Office of Education,Soli Deo Gloria Christian School,Closed,Information Redacted,Information Redacted,Information Redacted,Oakland,CA,94619-1022
School,Alameda,Alameda County Office of Education,"Technical, Agricultural & Nat.",Closed,,,597 C St.,Hayward,CA,94541
School,Alameda,Alameda County Office of Education,University High School (Defunc,Closed,,,,,,
School,Alameda,Alameda County Office of Education,Urban Montessori Charter,Active,37.786794,-122.188174,4551 Steele St.,Oakland,CA,94619-3312
School,Alameda,Alameda County Office of Education,Washington Evening High (Defun,Closed,,,,,,
School,Alameda,Alameda County Office of Education,Whiteford (June) School,Merged,,,35725 Cedar Blvd.,Newark,CA,94560
School,Alameda,Alameda County Office of Education,Whiteford School (TMR),Closed,,,685 A St.,Hayward,CA,94541
School,Alameda,Alameda County Office of Education,Yu Ming Charter,Active,37.847375,-122.283564,1086 Alcatraz Ave.,Oakland,CA,94608-1265
School,Alameda,Alameda Unified,Advance College Academy,Active,37.759182,-122.238911,2710 Encinal Ave.,Alameda,CA,94501
School,Alameda,Alameda Unified,Alameda Adult,Active,37.76421,-122.247043,2201 Encinal Ave.,Alameda,CA,94501
School,Alameda,Alameda Unified,Alameda Christian School,Closed,Information Redacted,Information Redacted,Information Redacted,Alameda,CA,94501-1429
School,Alameda,Alameda Unified,Alameda City Unified Alternative Educ.,Closed,,,2437 Eagle Ave.,Alameda,CA,94501
School,Alameda,Alameda Unified,Alameda Community Learning Center,Active,37.779051,-122.287031,1900 Third St.,Alameda,CA,94501-1851
School,Alameda,Alameda Unified,Alameda High,Active,37.764958,-122.245935,2200 Central Ave.,Alameda,CA,94501-4406
School,Alameda,Alameda Unified,Alameda Science and Technology Institute,Active,37.780753,-122.279307,555 Ralph Appezzato Memorial Pkwy.,Alameda,CA,94501-2109
School,Alameda,Alameda Unified,Alameda Unified Special Education,Active,37.782212,-122.270085,2060 Challenger Dr.,Alameda,CA,94501-1037
School,Alameda,Alameda Unified,Amelia Earhart Elementary,Active,37.745289,-122.239284,400 Packet Landing Rd.,Alameda,CA,94502-6534
School,Alameda,Alameda Unified,Bay Farm,Active,37.738998,-122.251957,200 Aughinbaugh Way,Alameda,CA,94502-7451
School,Alameda,Alameda Unified,Central Christian School,Closed,,,Information Redacted,Alameda,CA,94501
School,Alameda,Alameda Unified,"Children's Learning Center-Elementary, Site #2",Closed,Information Redacted,Information Redacted,Information Redacted,Alameda,CA,94501
School,Alameda,Alameda Unified,Chinese American Schools - Alameda,Closed,Information Redacted,Information Redacted,Information Redacted,Alameda,CA,94502
School,Alameda,Alameda Unified,Chipman Middle,Closed,,,401 Pacific Ave.,Alameda,CA,94501-1837
School,Alameda,Alameda Unified,Coastline Christian Schools,Active,37.728118,-122.239601,1801 North Loop Rd.,Alameda,CA,94502-8006
School,Alameda,Alameda Unified,College Preparatory & Architecture Academy,Closed,,,4610 Foothill Blvd.,Oakland,CA,94601
School,Alameda,Alameda Unified,Da Vinci Center for Gifted Children,Active,37.769661,-122.249438,2050 Lincoln Ave.,Alameda,CA,94501-2713
School,Alameda,Alameda Unified,Donald D. Lum Elementary,Closed,37.761327,-122.262452,420 Grand St.,Alameda,CA,94501-5941
School,Alameda,Alameda Unified,Edison Elementary,Active,37.765083,-122.234216,2700 Buena Vista Ave.,Alameda,CA,94501-1610
School,Alameda,Alameda Unified,Encinal High,Closed,37.773616,-122.290271,210 Central Ave.,Alameda,CA,94501-3278
School,Alameda,Alameda Unified,Encinal Junior Jets,Closed,37.772622,-122.288863,210 Central Ave.,Alameda,CA,94501-3246
School,Alameda,Alameda Unified,Encinal Junior/Senior High,Active,37.772765,-122.289009,210 Central Ave.,Alameda,CA,94501-3246
School,Alameda,Alameda Unified,EnCompass Four Corners School,Active,37.769482,-122.237958,1828 Park St.,Alameda,CA,94501-1418
School,Alameda,Alameda Unified,Frank Otis Elementary,Active,37.754029,-122.237997,3010 Fillmore St.,Alameda,CA,94501-5544
School,Alameda,Alameda Unified,Franklin Elementary,Active,37.769036,-122.261602,1433 San Antonio Ave.,Alameda,CA,94501-4039
School,Alameda,Alameda Unified,George P. Miller Elementary,Closed,,,250 Singleton Ave.,Alameda,CA,94501-7238
School,Alameda,Alameda Unified,Grand Alternative,Closed,,,400 Grant St.,Alameda,CA,94501
School,Alameda,Alameda Unified,Hensley Academy,Closed,Information Redacted,Information Redacted,Information Redacted,Alameda,CA,94501-3985
School,Alameda,Alameda Unified,Island High (Continuation),Active,37.782304,-122.279355,555 Atlantic Ave,Alameda,CA,94501-2109
School,Alameda,Alameda Unified,Kingdom Builder private school,Closed,Information Redacted,Information Redacted,Information Redacted,Oakland,CA,94621-4119
School,Alameda,Alameda Unified,"LePort Schools, Emeryville",Closed,Information Redacted,Information Redacted,Information Redacted,Emeryville,CA,94608-1028
School,Alameda,Alameda Unified,Lincoln Middle,Active,37.752242,-122.232765,1250 Fernside Blvd.,Alameda,CA,94501-4808
School,Alameda,Alameda Unified,Longfellow Elementary,Closed,,,500 Pacific Ave.,Alameda,CA,94501-2125
School,Alameda,Alameda Unified,Love Elementary,Active,37.769332,-122.251069,2025 Santa Clara Ave.,Alameda,CA,94501-2720
School,Alameda,Alameda Unified,Mastick Elementary,Closed,,,1525 Bay St.,Alameda,CA,94501
School,Alameda,Alameda Unified,Maya Lin,Closed,37.772724,-122.27189,825 Taylor St.,Alameda,CA,94501-3411
School,Alameda,Alameda Unified,Maya Lin,Active,37.772663,-122.271459,825 Taylor Ave.,Alameda,CA,94501-3411
School,Alameda,Alameda Unified,McKinney Christian Academy,Closed,Information Redacted,Information Redacted,Information Redacted,Alameda,CA,94501-7151
School,Alameda,Alameda Unified,Nea Community Learning Center,Active,37.779051,-122.287031,1900 Third St.,Alameda,CA,94501-1851
School,Alameda,Alameda Unified,Peter Pan Academy,Closed,,,Information Redacted,Alameda,CA,94502
School,Alameda,Alameda Unified,Porter Elementary,Closed,,,2248 Alameda Ave.,Alameda,CA,94501
School,Alameda,Alameda Unified,Rising Star Montessori School,Active,37.75882,-122.231594,1421 High St.,Alameda,CA,94501-3102
School,Alameda,Alameda Unified,Ruby Bridges Elementary,Active,37.781834,-122.286146,351 Jack London Ave.,Alameda,CA,94501-3901
School,Alameda,Alameda Unified,Saint Joseph Notre Dame High School,Active,37.765264,-122.255019,1011 Chestnut St.,Alameda,CA,94501-4315
School,Alameda,Alameda Unified,St. Barnabas Elementary,Closed,,,Information Redacted,Alameda,CA,94501
School,Alameda,Alameda Unified,St. Joseph Elementary,Active,37.765992,-122.254979,1910 San Antonio Ave.,Alameda,CA,94501-4216
School,Alameda,Alameda Unified,St. Philip Neri Elementary,Active,37.757182,-122.23313,1335 High St.,Alameda,CA,94501-3165
School,Alameda,Alameda Unified,Sycamore Tree Academy,Closed,,,Information Redacted,Alameda,CA,94502
School,Alameda,Alameda Unified,The Academy of Alameda,Active,37.776497,-122.285826,401 Pacific Ave.,Alameda,CA,94501-1837
School,Alameda,Alameda Unified,The Academy of Alameda Elementary,Closed,37.77693,-122.285289,401 Pacific Ave.,Alameda,CA,94501-1837
School,Alameda,Alameda Unified,The Child Unique Montessori School/Montessori Elementary School of Alameda,Active,37.763791,-122.247099,2226 Encinal Ave. and 1400 6th St.,Alameda,CA,94501
School,Alameda,Alameda Unified,The Phillips Academy,Active,37.768583,-122.253292,1910 Central Ave.,Alameda,CA,94501-2623
School,Alameda,Alameda Unified,Washington Elementary,Closed,37.772348,-122.272195,825 Taylor Ave.,Alameda,CA,94501-3411
School,Alameda,Alameda Unified,Will C. Wood Middle,Active,37.763031,-122.26192,420 Grand St.,Alameda,CA,94501-5941
School,Alameda,Alameda Unified,William G. Paden Elementary,Active,37.771566,-122.284469,444 Central Ave.,Alameda,CA,94501-3615
School,Alameda,Alameda Unified,Williams Academy,Closed,,,Information Redacted,Oakland,CA,94610
School,Alameda,Alameda Unified,Woodstock Elementary,Closed,,,1900 Third St.,Alameda,CA,94501-1898
School,Alameda,Albany City Unified,Albany Adult,Closed,,,603 Key Route Blvd.,Albany,CA,94706
School,Alameda,Albany City Unified,Albany Adult,Closed,37.896209,-122.292093,603 Key Route Blvd.,Albany,CA,94706-1422
School,Alameda,Albany City Unified,Albany Children's Center,Closed,37.893133,-122.302825,720 Jackson St.,Albany,CA,94706
School,Alameda,Albany City Unified,Albany High,Active,37.896661,-122.292572,603 Key Route Blvd.,Albany,CA,94706-1422
School,Alameda,Albany City Unified,Albany Middle,Active,37.897851,-122.295309,1259 Brighton Ave.,Albany,CA,94706-1336
School,Alameda,Albany City Unified,Albany Primary,Closed,,,607 Key Route Blvd.,Albany,CA,94706
School,Alameda,Albany City Unified,BRIGHT STAR MONTESSORI,Closed,,,Information Redacted,ALBANY,CA,94706
School,Alameda,Albany City Unified,Cornell Elementary,Active,37.889826,-122.295187,920 Talbot Ave.,Albany,CA,94706-2020
School,Alameda,Albany City Unified,MacGregor High (Continuation),Active,37.89642,-122.292117,603 Key Route Blvd.,Albany,CA,94706-1422
School,Alameda,Albany City Unified,MacGregor Primary,Closed,,,601 San Gabriel Ave.,Albany,CA,94706
School,Alameda,Albany City Unified,Marin Elementary,Active,37.888559,-122.288171,1001 Santa Fe Ave.,Albany,CA,94706-2341
School,Alameda,Albany City Unified,Ocean View Elementary,Active,37.887539,-122.30092,1000 Jackson St.,Albany,CA,94706-1904
School,Alameda,Albany City Unified,Semillas del Sol,Closed,Information Redacted,Information Redacted,Information Redacted,Albany,CA,94706-1421
School,Alameda,Albany City Unified,Tilden Preparatory School,Active,37.890701,-122.295003,1231 Solano Ave.,Albany,CA,94706-1734
School,Alameda,Albany City Unified,Vista-MacGregor Primary,Closed,,,,,,
School,Alameda,Amador Valley Joint Union High,Amador Valley Adult Education,Merged,,,4750 First St.,Pleasanton,CA,94566-7399
School,Alameda,Amador Valley Joint Union High,Amador Valley Adult Education,Closed,,,8151 Village Pkwy.,Dublin,CA,94566
School,Alameda,Amador Valley Joint Union High,Amador Valley High,Merged,,,1155 Santa Rita Rd.,Pleasanton,CA,94566-6176
School,Alameda,Amador Valley Joint Union High,Dublin High,Merged,,,8151 Village Pkwy.,Dublin,CA,94568
School,Alameda,Amador Valley Joint Union High,Foothill High,Merged,,,4375 Foothill Rd.,Pleasanton,CA,94566-9799
School,Alameda,Amador Valley Joint Union High,Pleasanton Unified Alternative,Merged,,,Ten Neal St.,Pleasanton,CA,94566
School,Alameda,Amador Valley Joint Union High,Valley High,Merged,,,7001 Brighton Dr.,Dublin,CA,94568-3075
School,Alameda,Amador Valley Joint Union High,Village High,Merged,,,4750 First St.,Pleasanton,CA,94566-8399
School,Alameda,Berkeley Unified,American International Montessori School,Active,37.847405,-122.270972,3339 Martin Luther King Jr. Way,Berkeley,CA,94703-2720
School,Alameda,Berkeley Unified,Archway School,Closed,Information Redacted,Information Redacted,Information Redacted,Berkeley,CA,94709-2136
School,Alameda,Berkeley Unified,Arrowsmith Academy,Closed,,,Information Redacted,Berkeley,CA,94704-4704
School,Alameda,Berkeley Unified,Bayhill High,Active,37.875998,-122.271731,1940 Virginia St.,Berkeley,CA,94709-2136
School,Alameda,Berkeley Unified,Bayhill High - Bay Area Educational Institute,Closed,Information Redacted,Information Redacted,Information Redacted,Berkeley,CA,94709-2136
School,Alameda,Berkeley Unified,Berkeley Adult,Active,37.873179,-122.291588,1701 San Pablo Ave.,Berkeley,CA,94702-1709
School,Alameda,Berkeley Unified,Berkeley Alternative Jr. High,Closed,,,2425 Stuart St.,Berkeley,CA,94705
School,Alameda,Berkeley Unified,Berkeley Arts Magnet at Whittier,Active,37.876919,-122.271231,1645 Milvia St.,Berkeley,CA,94709-2073
School,Alameda,Berkeley Unified,Berkeley High,Active,37.868913,-122.2712,1980 Allston Way,Berkeley,CA,94704-1463
School,Alameda,Berkeley Unified,Berkeley Independent Study K-8,Pending,37.859409,-122.270573,2701 Martin Luther King Jr Way,Berkeley,CA,94703-2165
School,Alameda,Berkeley Unified,Berkeley Rose Waldorf School,Active,37.864795,-122.256128,2515 Hillegass Ave.,Berkeley,CA,94709-2913
School,Alameda,Berkeley Unified,Berkeley Special Education Preschool,Active,37.869954,-122.272834,2134 Martin Luther King Jr. Way,Berkeley,CA,94704-1180
School,Alameda,Berkeley Unified,Berkeley Technology Academy,Active,37.85974,-122.27171,2701 Martin Luther King Jr. Way,Berkeley,CA,94704-2165
School,Alameda,Berkeley Unified,Berkwood Hedge School,Active,37.86691,-122.273777,1809 Bancroft Way,Berkeley,CA,94703-1711
School,Alameda,Berkeley Unified,Black Pine Circle,Active,37.867227,-122.296091,2027 7Th St.,Berkeley,CA,94710-2091
School,Alameda,Berkeley Unified,Center for Early Intervention on Deafness (CEID),Active,37.856145,-122.288818,1035 Grayson St.,Berkeley,CA,94710-2642
School,Alameda,Berkeley Unified,Cragmont Elementary,Active,37.892673,-122.263555,830 Regal Rd.,Berkeley,CA,94708-1308
School,Alameda,Berkeley Unified,East Bay School for Boys,Active,37.867295,-122.261659,2340 Durant Ave.,Berkeley,CA,94704-1607
School,Alameda,Berkeley Unified,East Bay School For Girls,Closed,,,Information Redacted,Berkeley,CA,94705
School,Alameda,Berkeley Unified,EAST BAY SCHOOL OF THE ARTS MI,Closed,,,Information Redacted,Oakland,CA,94618
School,Alameda,Berkeley Unified,Ecole Bilingue De Berkeley,Active,37.854304,-122.289329,1009 Heinz Ave.,BERKELEY,CA,94708-2718
School,Alameda,Berkeley Unified,Emerson Elementary,Active,37.86149,-122.251112,2800 Forest Ave.,Berkeley,CA,94705-1309
School,Alameda,Berkeley Unified,Franklin Elementary,Closed,,,1150 Virginia St.,Berkeley,CA,94702-1323
School,Alameda,Berkeley Unified,Franklin Parent Nursery,Merged,,,1460 Eighth St.,Berkeley,CA,94703
School,Alameda,Berkeley Unified,Fusion Academy Berkeley,Active,37.868315,-122.298128,"811 University Ave, Ste. 100",Berkeley,CA,94710-2076
School,Alameda,Berkeley Unified,Grizzly Peak Primary,Closed,,,40 Whitaker Ave.,Berkeley,CA,94708
School,Alameda,Berkeley Unified,HEARTS LEAP,Closed,,,Information Redacted,BERKELEY,CA,94704
School,Alameda,Berkeley Unified,Hillside Primary,Closed,,,1581 Leroy Ave.,Berkeley,CA,94708
School,Alameda,Berkeley Unified,Home Teaching,Closed,,,1809 Fairview,Berkeley,CA,94703
School,Alameda,Berkeley Unified,John Muir Elementary,Active,37.857194,-122.245936,2955 Claremont Ave.,Berkeley,CA,94705-2449
School,Alameda,Berkeley Unified,Kilimanjaro,Closed,,,830 Regal Rd.,Berkeley,CA,94708
School,Alameda,Berkeley Unified,King Educational Center,Closed,,,1810 Hopkins St.,Berkeley,CA,94707
School,Alameda,Berkeley Unified,Longfellow Arts and Technology Middle,Active,37.858687,-122.280007,1500 Derby St.,Berkeley,CA,94703-1817
School,Alameda,Berkeley Unified,Longfellow Parent Nursery,Merged,,,1522 Ward St.,Berkeley,CA,94705
School,Alameda,Berkeley Unified,Malcolm X Elementary,Active,37.8522,-122.273734,1731 Prince St.,Berkeley,CA,94703-2464
School,Alameda,Berkeley Unified,Martin Luther King Middle,Active,37.881113,-122.277009,1781 Rose St.,Berkeley,CA,94703-1048
School,Alameda,Berkeley Unified,Maybeck High School,Active,37.862017,-122.25337,2727 College Ave.,Berkeley,CA,94705-1247
School,Alameda,Berkeley Unified,Montessori Family School,Closed,,,Information Redacted,Berkeley,CA,94709
School,Alameda,Berkeley Unified,Muir Model School,Closed,,,2955 Claremont Ave.,Berkeley,CA,94705
School,Alameda,Berkeley Unified,New Age Academy,Closed,,,Information Redacted,Berkeley,CA,94703
School,Alameda,Berkeley Unified,OUR,Closed,,,Information Redacted,BERKELEY,CA,94705
School,Alameda,Berkeley Unified,Oxford Elementary at West Campus,Active,37.869063,-122.288516,1222 University Ave.,Berkeley,CA,94702-1766
School,Alameda,Berkeley Unified,Pregnant Minors Program,Closed,,,Bungalow B,Berkeley,CA,94704
School,Alameda,Berkeley Unified,Quantum Camp,Closed,Information Redacted,Information Redacted,Information Redacted,Berkeley,CA,94704-1307
School,Alameda,Berkeley Unified,REALM Charter,Closed,37.867407,-122.294895,2023 Eighth St.,Berkeley,CA,94710-2026
School,Alameda,Berkeley Unified,REALM Charter High,Closed,37.867479,-122.294925,2023 Eighth St.,Berkeley,CA,94710-2026
School,Alameda,Berkeley Unified,REALM Charter Middle,Closed,37.869147,-122.288078,1222 University Ave.,Berkeley,CA,94702-2026
School,Alameda,Berkeley Unified,Rosa Parks Environmental Science,Active,37.865652,-122.294711,920 Allston Way,Berkeley,CA,94710-2389
School,Alameda,Berkeley Unified,Ruth Acty Elementary,Active,37.878921,-122.285216,1400 Ada St.,Berkeley,CA,94702-1217
School,Alameda,Berkeley Unified,Saint Mary's College High School,Active,37.882303,-122.283671,1294 Albina Ave.,Berkeley,CA,94706-2599
School,Alameda,Berkeley Unified,School of the Madeleine,Active,37.884809,-122.272048,1225 Milvia St.,Berkeley,CA,94709-1932
School,Alameda,Berkeley Unified,Shu Ren International School,Active,37.869099,-122.278032,2125 Jefferson Ave.,Berkeley,CA,94703-1414
School,Alameda,Berkeley Unified,ST. DAVID'S EDUCATIONAL CLINIC,Closed,,,Information Redacted,Berkeley,CA,94704
School,Alameda,Berkeley Unified,St. Joseph the Worker,Closed,,,Information Redacted,Berkeley,CA,94703
School,Alameda,Berkeley Unified,Sylvia Mendez Elementary,Active,37.858258,-122.261704,2840 Ellsworth St.,Berkeley,CA,94705-1029
School,Alameda,Berkeley Unified,T 4 Kids School,Closed,,,Information Redacted,Berkeley,CA,94703
School,Alameda,Berkeley Unified,The Academy,Active,37.860796,-122.255027,2722 Benvenue Ave.,Berkeley,CA,94705-1202
School,Alameda,Berkeley Unified,The Berkeley School,Active,37.870112,-122.285655,1310 University Ave.,Berkeley,CA,94702-1711
School,Alameda,Berkeley Unified,The Crowden School,Active,37.878992,-122.283133,1475 Rose St.,Berkeley,CA,94702-1255
School,Alameda,Berkeley Unified,Thousand Oaks Elementary,Active,37.893082,-122.280401,840 Colusa Ave.,Berkeley,CA,94707-1858
School,Alameda,Berkeley Unified,Tilden Primary,Closed,,,499 Spruce St.,Berkeley,CA,94707
School,Alameda,Berkeley Unified,Torin's School,Closed,Information Redacted,Information Redacted,Information Redacted,Berkeley,CA,94705-1005
School,Alameda,Berkeley Unified,UC Child Study Parent Nursery,Merged,,,2425 Atherton,Berkeley,CA,94705
School,Alameda,Berkeley Unified,Via Center,Active,37.865625,-122.29729,2126 6th St.,Berkeley,CA,94710-2248
School,Alameda,Berkeley Unified,Walden Center & School,Active,37.863574,-122.273564,2446 Mckinley Ave,Berkeley,CA,94703-1928
School,Alameda,Berkeley Unified,Washington Elementary,Active,37.866959,-122.272571,2300 Martin Luther King Jr. Way,Berkeley,CA,94704-1412
School,Alameda,Berkeley Unified,"West Campus, Berkeley High",Closed,,,1222 University Ave.,Berkeley,CA,94702
School,Alameda,Berkeley Unified,West Wind Academy,Closed,Information Redacted,Information Redacted,Information Redacted,Oakland,CA,94611-5109
School,Alameda,Berkeley Unified,Whittier Primary,Closed,,,1645 Milvia St.,Berkeley,CA,94709
School,Alameda,Berkeley Unified,Willard Middle,Active,37.859666,-122.258628,2425 Stuart St.,Berkeley,CA,94705-1209
School,Alameda,Berkeley Unified,WoodsEdge Inc. DBA: Archway School,Closed,Information Redacted,Information Redacted,Information Redacted,Berkeley,CA,94709
School,Alameda,California School for the Blind (State Special Schl),California School for the Blind,Active,37.562576,-121.96563,500 Walnut Ave.,Fremont,CA,94536-4365
School,Alameda,California School for the Deaf-Fremont (State Special Schl),California School for the Deaf-Fremont,Active,37.558956,-121.965519,39350 Gallaudet Dr.,Fremont,CA,94538-2308
School,Alameda,Castro Valley Unified,"School of Love, Joy and Peace",Closed,Information Redacted,Information Redacted,Information Redacted,Castro Valley,CA,94552-5379
School,Alameda,Castro Valley Unified,A Shepherd's Heart Christian School,Closed,Information Redacted,Information Redacted,Information Redacted,Castro Valley,CA,94546
School,Alameda,Castro Valley Unified,A. B. Morris Intermediate,Closed,,,3310 Barlow Dr.,Castro Valley,CA,94546
School,Alameda,Castro Valley Unified,Alma Preschool,Active,37.707693,-122.070383,4400 Alma Ave.,Castro Valley,CA,94546-3104
School,Alameda,Castro Valley Unified,"Anchor Education, Inc. dba OneSchool Global - San Francisco",Active,37.705776,-122.089506,19234 Lake Chabot Rd.,Castro Valley,CA,94546-2902
School,Alameda,Castro Valley Unified,Camelot School,Closed,Information Redacted,Information Redacted,Information Redacted,Castro Valley,CA,94546-3921
School,Alameda,Castro Valley Unified,Canyon Middle,Active,37.705772,-122.054261,19600 Cull Canyon Rd.,Castro Valley,CA,94552-3715
School,Alameda,Castro Valley Unified,Castro Valley Adult and Career Education,Active,37.708006,-122.071185,4430 Alma Ave.,Castro Valley,CA,94546-4704
School,Alameda,Castro Valley Unified,Castro Valley Elementary,Active,37.698047,-122.081025,20185 San Miguel Ave.,Castro Valley,CA,94546-0146
School,Alameda,Castro Valley Unified,Castro Valley Evening High Sch,Closed,,,19400 Santa Maria Ave.,Castro Valley,CA,94546
School,Alameda,Castro Valley Unified,Castro Valley High,Active,37.705184,-122.078478,19400 Santa Maria Ave.,Castro Valley,CA,94546-3400
School,Alameda,Castro Valley Unified,Castro Valley Virtual Academy,Active,37.713501,-122.092224,18400 Clifton Way,Castro Valley,CA,94546-2020
School,Alameda,Castro Valley Unified,Chabot Elementary,Active,37.707084,-122.090125,19104 Lake Chabot Rd.,Castro Valley,CA,94546-2936
School,Alameda,Castro Valley Unified,Clifton Elementary,Closed,,,18400 Clifton Way,Castro Valley,CA,94546
School,Alameda,Castro Valley Unified,Creekside Middle,Active,37.699926,-122.061243,19722 Center St.,Castro Valley,CA,94546-4704
School,Alameda,Castro Valley Unified,Independent Elementary,Active,37.699109,-122.049754,21201 Independent School Rd.,Castro Valley,CA,94552-4826
School,Alameda,Castro Valley Unified,Jensen Ranch Elementary,Active,37.713125,-122.031229,20001 Carson Ln.,Castro Valley,CA,94552-1001
School,Alameda,Castro Valley Unified,Marshall Elementary,Active,37.697794,-122.065737,20111 Marshall St.,Castro Valley,CA,94546-4656
School,Alameda,Castro Valley Unified,NEW LIFE ACADEMY,Closed,,,Information Redacted,CASTRO VALLEY,CA,94546
School,Alameda,Castro Valley Unified,Our Lady of Grace School,Active,37.700564,-122.083326,19920 Anita Ave.,Castro Valley,CA,94546-4106
School,Alameda,Castro Valley Unified,Palomares Elementary,Active,37.695582,-122.024806,6395 Palo Verde Rd.,Castro Valley,CA,94552-9708
School,Alameda,Castro Valley Unified,Parsons Elementary,Closed,,,17570 Almond Rd.,Castro Valley,CA,94546
School,Alameda,Castro Valley Unified,Proctor Elementary,Active,37.716742,-122.073666,17520 Redwood Rd.,Castro Valley,CA,94546-1434
School,Alameda,Castro Valley Unified,R-KID'S KDGN./EXTENDED CENTER,Closed,,,Information Redacted,Castro Valley,CA,94552
School,Alameda,Castro Valley Unified,Redwood Adult Center,Closed,,,4400 Alma Ave.,Castro Valley,CA,94546
School,Alameda,Castro Valley Unified,Redwood Alternative High,Closed,37.7128,-122.093055,18400 Clifton Way,Castro Valley,CA,94546
School,Alameda,Castro Valley Unified,Redwood Christian Elementary,Active,37.705742,-122.073825,19300 Redwood Rd.,Castro Valley,CA,94546-3465
School,Alameda,Castro Valley Unified,Redwood Christian Schools–Crossroads,Closed,,,Information Redacted,Castro Valley,CA,94546
School,Alameda,Castro Valley Unified,Redwood Continuation High,Active,37.7128,-122.093055,18400 Clifton Way,Castro Valley,CA,94546-0146
School,Alameda,Castro Valley Unified,Redwood Elementary,Closed,,,19722 Center St.,Castro Valley,CA,94546
School,Alameda,Castro Valley Unified,Redwood Primary,Closed,,,4208 James Ave.,Castro Valley,CA,94546
School,Alameda,Castro Valley Unified,Roy A. Johnson High,Active,37.713501,-122.092224,18400 Clifton Way,Castro Valley,CA,94546-0146
School,Alameda,Castro Valley Unified,Stanton Elementary,Active,37.699908,-122.093526,2644 Somerset Ave.,Castro Valley,CA,94546-4016
School,Alameda,Castro Valley Unified,Sydney Elementary,Closed,,,2755 Sydney Way,Castro Valley,CA,94546
School,Alameda,Castro Valley Unified,The Montessori Giving Tree,Active,37.684493,-122.081237,1914 Grove way Rear,Castro Valley,CA,94546-6828
School,Alameda,Castro Valley Unified,Vannoy Elementary,Active,37.706636,-122.05868,5100 Vannoy,Castro Valley,CA,94546-0146
School,Alameda,Castro Valley Unified,Vita Academy,Closed,,,Information Redacted,Castro Valley,CA,94546-7199
School,Alameda,Dublin Unified,CALIFORNIA CHRISTIAN ACADEMY A,Closed,,,Information Redacted,DUBLIN,CA,94568
School,Alameda,Dublin Unified,Challenge The Mind,Closed,,,Information Redacted,Dublin,CA,94568
School,Alameda,Dublin Unified,Cottonwood Creek,Active,37.710001,-121.847328,2400 Central Pkwy.,Dublin,CA,94568-6723
School,Alameda,Dublin Unified,Donlon Elementary,Merged,,,4150 Dorman Rd.,Pleasanton,CA,94568
School,Alameda,Dublin Unified,Dublin Adult Education,Active,37.709542,-121.921465,6901 York Dr.,Dublin,CA,94568-1500
School,Alameda,Dublin Unified,Dublin Elementary,Active,37.715023,-121.936509,7997 Vomac Rd.,Dublin,CA,94568-1599
School,Alameda,Dublin Unified,Dublin High,Active,37.720996,-121.926391,8151 Village Pkwy.,Dublin,CA,94568-1656
School,Alameda,Dublin Unified,Dublin Unified Preschool,Active,37.715017,-121.936512,7997 Vomac Rd.,Dublin,CA,94568-1599
School,Alameda,Dublin Unified,Dublin Unified Transition Program,Active,37.709575,-121.921082,6901 York Dr.,Dublin,CA,94568-2153
School,Alameda,Dublin Unified,Eleanor Murray Fallon,Closed,37.71573,-121.8659,3601 Kohnen Way,Dublin,CA,94568
School,Alameda,Dublin Unified,Eleanor Murray Fallon,Active,37.71566,-121.865893,3601 Kohnen Way,Dublin,CA,94568-8751
School,Alameda,Dublin Unified,Fallon Elementary,Closed,,,7425 Larkdale Ave.,Dublin,CA,94566
School,Alameda,Dublin Unified,Fountainhead Montessori School,Active,37.70149,-121.926016,6670 Amador Plaza Rd.,Dublin,CA,94568-2991
School,Alameda,Dublin Unified,Frederiksen Elementary,Active,37.715077,-121.921957,7243 Tamarack Dr.,Dublin,CA,94568-1746
School,Alameda,Dublin Unified,Harold William Kolb,Active,37.71193,-121.858704,3150 Palermo Way,Dublin,CA,94568-7326
School,Alameda,Dublin Unified,J. M. Amador Elementary,Active,37.717296,-121.845659,2100 East Cantara Dr.,Dublin,CA,94568-6700
School,Alameda,Dublin Unified,James Dougherty Elementary,Active,37.71039,-121.885121,5301 Hibernia Dr.,Dublin,CA,94568-3164
School,Alameda,Dublin Unified,John Green Elementary,Active,37.7181,-121.8615,3300 Antone Way,Dublin,CA,94568-7550
School,Alameda,Dublin Unified,Knowledge Schools,Closed,Information Redacted,Information Redacted,Information Redacted,Dublin,CA,94568-2820
School,Alameda,Dublin Unified,Murray Elementary,Active,37.72154,-121.932981,8435 Davona Dr.,Dublin,CA,94568-1107
School,Alameda,Dublin Unified,Nielsen Elementary,Closed,,,7500 Amarillo Dr.,Dublin,CA,94568-2224
School,Alameda,Dublin Unified,St. Philip Lutheran,Closed,Information Redacted,Information Redacted,Information Redacted,Dublin,CA,94568-1132
School,Alameda,Dublin Unified,St. Raymond,Active,37.713837,-121.939753,11557 Shannon Ave.,Dublin,CA,94568-1376
School,Alameda,Dublin Unified,The Quarry Lane School,Active,37.727674,-121.870143,6363 Tassajara Rd,Dublin,CA,94568-9447
School,Alameda,Dublin Unified,Valley Christian Elementary School,Active,37.702659,-121.954926,7500 Inspiration Dr.,Dublin,CA,94568-2838
School,Alameda,Dublin Unified,Valley Christian Middle / Senior High School,Active,37.702659,-121.954926,7500 Inspiration Dr.,Dublin,CA,94568-2838
School,Alameda,Dublin Unified,Valley High (Continuation),Active,37.720977,-121.921644,8151 Village Pkwy.,Dublin,CA,94568-1656
School,Alameda,Dublin Unified,Wells Middle,Active,37.712563,-121.9188,6800 Penn Dr.,Dublin,CA,94568-2118
School,Alameda,Dublin Unified,York Alternative Learning Center,Active,37.709368,-121.920222,6901 York Dr.,Dublin,CA,94568-2153
School,Alameda,East Bay Regional Occupational Agency (ROP),East Bay Regional Occupation Center/Agency (ROC/P),Closed,37.778623,-122.287889,"1900 Third St., Rm. 23",Alameda,CA,94501-1851
School,Alameda,Eden Area ROP,Eden Area ROP,Active,37.634543,-122.098744,26316 Hesperian Blvd.,Hayward,CA,94545-2458
School,Alameda,Emery Unified,Anna Yates Elementary,Active,37.836311,-122.281826,4727 San Pablo,Emeryville,CA,94608-3643
School,Alameda,Emery Unified,East Bay German International School,Closed,Information Redacted,Information Redacted,Information Redacted,Emeryville,CA,94608-3643
School,Alameda,Emery Unified,East Bay German International School,Active,37.83242,-122.278725,1070 41st St.,Emeryville,CA,94608-3643
School,Alameda,Emery Unified,Emery Adult,Closed,,,4727 San Pablo Ave.,Emeryville,CA,94608-3035
School,Alameda,Emery Unified,Emery Middle,Closed,,,1275 - 61st St.,Emeryville,CA,94608
School,Alameda,Emery Unified,Emery Secondary,Active,37.835677,-122.282825,1100 47th St.,Emeryville,CA,94608-2908
School,Alameda,Emery Unified,Emeryville Preschool Students,Active,37.842955,-122.288433,1275 - 61st St.,Emeryville,CA,94608-2132
School,Alameda,Emery Unified,Guidepost Montessori at Emeryville,Active,37.844408,-122.290155,1450 63Rd St.,Emeryville,CA,94608-2130
School,Alameda,Emery Unified,Ralph Hawley Elementary,Closed,,,1275 61st St.,Emeryville,CA,94608
School,Alameda,Fremont Unified,A CHILD'S HIDEAWAY,Closed,,,Information Redacted,FREMONT,CA,94536
School,Alameda,Fremont Unified,Alsion Montessori Middle/High,Active,37.532296,-121.913793,750 Witherly Ln.,Fremont,CA,94539-5855
School,Alameda,Fremont Unified,Alviso Elementary,Closed,,,3375 Warwick Rd.,Fremont,CA,94536
School,Alameda,Fremont Unified,American High,Active,37.563645,-122.017475,36300 Fremont Blvd.,Fremont,CA,94536-3511
School,Alameda,Fremont Unified,Ardenwood Elementary,Active,37.572796,-122.052052,33955 Emilia Ln.,Fremont,CA,94555-2068
School,Alameda,Fremont Unified,ATID JEWISH DAY,Closed,,,Information Redacted,FREMONT,CA,94538
School,Alameda,Fremont Unified,Averroes High School,Active,37.531551,-121.920066,43427 Mission Blvd,Fremont,CA,94539-5830
School,Alameda,Fremont Unified,BASIS Independent Fremont,Active,37.547816,-121.975224,3300 Kearney St.,Fremont,CA,94538-2208
School,Alameda,Fremont Unified,"BASIS Independent Fremont, Upper School",Active,37.55942,-121.953721,39706 Mission Blvd.,Fremont,CA,94539-3089
School,Alameda,Fremont Unified,Bayside Academy,Closed,Information Redacted,Information Redacted,Information Redacted,Fremont,CA,94538-2971
School,Alameda,Fremont Unified,Bethel Christian Academy,Closed,Information Redacted,Information Redacted,Information Redacted,Fremont,CA,94536-3402
School,Alameda,Fremont Unified,Brier Elementary,Active,37.539776,-121.984708,39201 Sundale Dr.,Fremont,CA,94538-1916
School,Alameda,Fremont Unified,Brookvale Elementary,Active,37.568768,-122.013996,3400 Nicolet Ave.,Fremont,CA,94536-3598
School,Alameda,Fremont Unified,Cabrillo Elementary,Active,37.550826,-122.023339,36700 San Pedro Dr.,Fremont,CA,94536-6406
School,Alameda,Fremont Unified,CALVARY BAPTIST,Closed,,,Information Redacted,FREMONT,CA,94538
School,Alameda,Fremont Unified,Carmen R. Meléndez,Closed,37.522374,-121.980678,5203 Curtis St.,Fremont,CA,94538
School,Alameda,Fremont Unified,Centerville Junior High,Active,37.555648,-122.001905,37720 Fremont Blvd.,Fremont,CA,94536-5096
School,Alameda,Fremont Unified,Circle of Independent Learning,Active,37.537962,-121.992069,4700 Calaveras Ave.,Fremont,CA,94538-1124
School,Alameda,Fremont Unified,David Reynolds Elementary,Closed,,,42875 Gatewood St.,Fremont,CA,94538
School,Alameda,Fremont Unified,Dominican Kindergarten,Closed,,,Information Redacted,Fremont,CA,94539
School,Alameda,Fremont Unified,E. M. Grimmer Elementary,Active,37.519634,-121.951004,43030 Newport Dr.,Fremont,CA,94538-6113
School,Alameda,Fremont Unified,EWay School,Closed,Information Redacted,Information Redacted,Information Redacted,Fremont,CA,94538-6518
School,Alameda,Fremont Unified,Forest Park Elementary,Active,37.561214,-122.051885,34400 Maybird Cir.,Fremont,CA,94555-2917
School,Alameda,Fremont Unified,Fred E. Weibel Elementary,Active,37.507308,-121.92838,45135 South Grimmer Blvd.,Fremont,CA,94539-6631
School,Alameda,Fremont Unified,Fremont Adult and Continuing Education,Active,37.538031,-121.990845,4700 Calaveras Ave.,Fremont,CA,94538-1124
School,Alameda,Fremont Unified,Fremont Christian School,Active,37.550372,-122.017886,4760 Thornton Ave.,Fremont,CA,94536-6409
School,Alameda,Fremont Unified,Fremont Elementary,Closed,,,40230 Laiolo Rd.,Fremont,CA,94538
School,Alameda,Fremont Unified,G. M. Walters Middle,Active,37.5373,-121.985866,39600 Logan Dr.,Fremont,CA,94538-1912
School,Alameda,Fremont Unified,Genius Kids Civic Center,Closed,Information Redacted,Information Redacted,Information Redacted,Fremont,CA,94538-6719
School,Alameda,Fremont Unified,Genius Kids Club Ardenwood,Closed,Information Redacted,Information Redacted,Information Redacted,Fremont,CA,94555
School,Alameda,Fremont Unified,Glankler (Donald G.) (Oh),Merged,,,39201 Sundale Dr.,Fremont,CA,94538
School,Alameda,Fremont Unified,Glankler Early Learning Center,Active,37.540113,-121.984388,39207 Sundale Dr.,Fremont,CA,94538-1916
School,Alameda,Fremont Unified,Glenmoor Elementary,Active,37.545703,-122.004876,4620 Mattos Dr.,Fremont,CA,94536-6784
School,Alameda,Fremont Unified,Grace Academy,Closed,,,Information Redacted,Fremont,CA,94538-4538
School,Alameda,Fremont Unified,Hacienda Elementary,Closed,,,35699 Niles Blvd.,Fremont,CA,94536
School,Alameda,Fremont Unified,Happy Bear Forest,Closed,,,Information Redacted,Fremont,CA,94539
School,Alameda,Fremont Unified,Harvey Green Elementary,Active,37.518135,-121.958105,42875 Gatewood St.,Fremont,CA,94538-4131
School,Alameda,Fremont Unified,Holy Spirit Elementary,Active,37.557257,-122.004332,3930 Parish Ave.,Fremont,CA,94536-3728
School,Alameda,Fremont Unified,HOPE ACADEMY,Closed,,,Information Redacted,FREMONT,CA,94538
School,Alameda,Fremont Unified,Ilm Academy,Active,37.509293,-121.971802,42412 Albrae St.,Fremont,CA,94538-3395
School,Alameda,Fremont Unified,Irvington Elementary,Closed,,,,,,
School,Alameda,Fremont Unified,Irvington High,Active,37.522654,-121.969024,41800 Blacow Rd.,Fremont,CA,94538-3353
School,Alameda,Fremont Unified,J. Haley Durham Elementary,Active,37.542078,-121.966891,40292 Leslie St.,Fremont,CA,94538-3520
School,Alameda,Fremont Unified,James Leitch Elementary,Active,37.486506,-121.923286,47100 Fernald St.,Fremont,CA,94539-7005
School,Alameda,Fremont Unified,John Blacow Elementary,Active,37.527561,-121.977127,40404 Sundale Dr.,Fremont,CA,94538-3314
School,Alameda,Fremont Unified,John F. Kennedy High,Active,37.528399,-121.983122,39999 Blacow Rd.,Fremont,CA,94538-1913
School,Alameda,Fremont Unified,John G. Mattos Elementary,Active,37.538095,-122.011723,37944 Farwell Dr.,Fremont,CA,94536-7008
School,Alameda,Fremont Unified,John Gomes Elementary,Active,37.550361,-121.947617,555 Lemos Ln.,Fremont,CA,94539-3750
School,Alameda,Fremont Unified,John M. Horner Middle,Active,37.529681,-121.964821,4350 Irvington Ave.,Fremont,CA,94538-4202
School,Alameda,Fremont Unified,Joseph Azevada Elementary,Active,37.53097,-121.994173,39450 Royal Palm Dr.,Fremont,CA,94538-1843
School,Alameda,Fremont Unified,Joshua Chadbourne Elementary,Active,37.542168,-121.939968,801 Plymouth Ave.,Fremont,CA,94539-4637
School,Alameda,Fremont Unified,Kiddoland Learning Center,Closed,Information Redacted,Information Redacted,Information Redacted,Fremont,CA,94539
School,Alameda,Fremont Unified,Kimber Hills Academy,Closed,Information Redacted,Information Redacted,Information Redacted,Fremont,CA,94539-3089
School,Alameda,Fremont Unified,KINDER CARE LEARNING CENTER,Closed,,,Information Redacted,FREMONT,CA,94536
School,Alameda,Fremont Unified,Lernen,Closed,,,Information Redacted,Fremont,CA,94538-4538
School,Alameda,Fremont Unified,Lila Bringhurst Elementary,Pending,37.498517,-121.953086,45051 Wisdom Rd.,Fremont,CA,94538
School,Alameda,Fremont Unified,Linda Vista Elementary,Closed,,,2650 Bruce Dr.,Fremont,CA,94538
School,Alameda,Fremont Unified,Linda Vista Elementary,Merged,,,2650 Bruce Dr.,Fremont,CA,94538
School,Alameda,Fremont Unified,Marshall (Earl) Elementary,Closed,,,5301 Curtis St.,Fremont,CA,94539
School,Alameda,Fremont Unified,Mills Academy,Closed,,,Information Redacted,Fremont,CA,94539
School,Alameda,Fremont Unified,Mission Hills Christian School,Closed,Information Redacted,Information Redacted,Information Redacted,Fremont,CA,94539
School,Alameda,Fremont Unified,Mission San Jose Elementary,Active,37.528296,-121.921378,43545 Bryant St.,Fremont,CA,94539-5885
School,Alameda,Fremont Unified,Mission San Jose High,Active,37.54504,-121.931934,41717 Palm Ave.,Fremont,CA,94539-4799
School,Alameda,Fremont Unified,Mission Valley Elementary,Active,37.535791,-121.947411,41700 Denise St.,Fremont,CA,94539-4562
School,Alameda,Fremont Unified,Montessori Children's Center,Closed,,,Information Redacted,Fremont,CA,94555
School,Alameda,Fremont Unified,Montessori School of Centerville,Closed,Information Redacted,Information Redacted,Information Redacted,Fremont,CA,94536-4832
School,Alameda,Fremont Unified,Montessori School of Fremont,Active,37.533864,-121.921844,155 Washington Blvd,Fremont,CA,94539-5209
School,Alameda,Fremont Unified,New Horizons School,Active,37.532181,-122.033002,37053 Cherry St.,"Newark, Ca",CA,94560
School,Alameda,Fremont Unified,Niles Elementary,Active,37.57705,-121.984464,37141 Second St.,Fremont,CA,94536-2835
School,Alameda,Fremont Unified,Noll (Conrad) Elementary,Closed,,,39600 Sundale Dr.,Fremont,CA,94538
School,Alameda,Fremont Unified,O. N. Hirsch Elementary,Active,37.528227,-121.962901,41399 Chapel Way,Fremont,CA,94538-4202
School,Alameda,Fremont Unified,Olive Prep School,Closed,Information Redacted,Information Redacted,Information Redacted,Fremont,CA,94539
School,Alameda,Fremont Unified,Oliveira Elementary,Active,37.560394,-122.017715,4180 Alder Ave.,Fremont,CA,94536-4799
School,Alameda,Fremont Unified,Olivos de Guadalupe,Closed,,,611 Olive Ave.,Fremont,CA,94538
School,Alameda,Fremont Unified,Origin L. Mowry Elementary,Closed,,,4700 Calaveras Rd.,Fremont,CA,94538
School,Alameda,Fremont Unified,Our Lady of Guadalupe,Active,37.540055,-121.967385,40374 Fremont Blvd.,Fremont,CA,94538-3409
School,Alameda,Fremont Unified,OUR SAVIOR LUTHERAN PRESCHOOL,Closed,,,Information Redacted,FREMONT,CA,94539
School,Alameda,Fremont Unified,Parkmont Elementary,Active,37.560232,-121.984686,2601 Parkside Dr.,Fremont,CA,94536-5246
School,Alameda,Fremont Unified,Patterson Elementary,Active,37.56225,-122.030851,35521 Cabrillo Dr.,Fremont,CA,94536-5499
School,Alameda,Fremont Unified,Peace Terrace Academy,Active,37.580684,-122.0549,33330 Peace Terr.,Fremont,CA,94555-1105
School,Alameda,Fremont Unified,Prince of Peace Lutheran School,Active,37.551852,-121.995548,38451 Fremont Blvd.,Fremont,CA,94536-6030
School,Alameda,Fremont Unified,Reeder Academy,Active,37.495707,-121.93429,2000 Warm Springs Ct #2,Fremont,CA,94539-6777
School,Alameda,Fremont Unified,Rivendell Academy of Fremont,Active,37.589715,-122.061328,32477 Lake Chabot St,Fremont,CA,94555-1036
School,Alameda,Fremont Unified,Robertson (Gus C.) Junior High,Closed,,,4455 Seneca Park Ave.,Fremont,CA,94538
School,Alameda,Fremont Unified,Robertson High (Continuation),Active,37.518632,-121.964928,4455 Seneca Park Ave.,Fremont,CA,94538-4028
School,Alameda,Fremont Unified,Scholars' Planet,Closed,,,Information Redacted,Fremont,CA,94539
School,Alameda,Fremont Unified,Scribbles Montessori School,Closed,Information Redacted,Information Redacted,Information Redacted,Fremont,CA,94536-6277
School,Alameda,Fremont Unified,St. Joseph Elementary,Active,37.534973,-121.918985,43222 Mission Blvd.,Fremont,CA,94539-5827
School,Alameda,Fremont Unified,Steven Millard Elementary,Active,37.520062,-121.973972,5200 Valpey Park Dr.,Fremont,CA,94538-3262
School,Alameda,Fremont Unified,Stratford School,Active,37.551055,-121.993978,38495 Fremont Blvd.,Fremont,CA,94536-6030
School,Alameda,Fremont Unified,Stratford School,Active,37.521134,-121.947444,43077 Osgood Rd.,Fremont,CA,94539-5628
School,Alameda,Fremont Unified,Sutherland Academy of Education,Closed,Information Redacted,Information Redacted,Information Redacted,Fremont,CA,94539-7730
School,Alameda,Fremont Unified,The Fremont Progressive Charter,Closed,,,38665 Fremont Blvd.,Fremont,CA,94536
School,Alameda,Fremont Unified,Thornton Junior High,Active,37.557124,-122.014543,4357 Thornton Ave.,Fremont,CA,94536-4897
School,Alameda,Fremont Unified,Timothy Rix Elementary,Closed,,,43100 Isle Royal St.,Fremont,CA,94538
School,Alameda,Fremont Unified,Tom Maloney Elementary,Active,37.545405,-121.998433,38700 Logan Dr.,Fremont,CA,94536-6899
School,Alameda,Fremont Unified,Vallejo Mill Elementary,Active,37.574495,-121.959908,38569 Canyon Heights Dr.,Fremont,CA,94536-1899
School,Alameda,Fremont Unified,Valor Academy,Closed,Information Redacted,Information Redacted,Information Redacted,Fremont,CA,94539-6854
School,Alameda,Fremont Unified,Vista Alternative,Active,37.518632,-121.964928,4455 Seneca Park Ave.,Fremont,CA,94538-4028
School,Alameda,Fremont Unified,Warm Springs Elementary,Active,37.482877,-121.925345,47370 Warm Springs Blvd.,Fremont,CA,94539-7458
School,Alameda,Fremont Unified,Warwick Elementary,Active,37.57651,-122.030485,3375 Warwick Rd.,Fremont,CA,94555-2499
School,Alameda,Fremont Unified,Washington High,Active,37.552082,-121.994844,38442 Fremont Blvd.,Fremont,CA,94536-6031
School,Alameda,Fremont Unified,Wildschool Academy,Closed,Information Redacted,Information Redacted,Information Redacted,Fremont,CA,94539-5051
School,Alameda,Fremont Unified,William Hopkins Junior High,Active,37.54702,-121.942424,600 Driscoll Rd.,Fremont,CA,94539-3803
School,Alameda,Fremont Unified,Williamson High,Closed,,,3400 Eggers Dr.,Fremont,CA,94536
School,Alameda,Fremont Unified,Young Adult Program,Active,37.53812,-121.992013,4700 Calaveras Ave.,Fremont,CA,94538-1124
School,Alameda,Hayward Unified,A Joyful Noise Learning Center,Closed,,,Information Redacted,Hayward,CA,94544
School,Alameda,Hayward Unified,All Saints Catholic School,Active,37.67252,-122.076065,22870 Second St.,Hayward,CA,94541-5217
School,Alameda,Hayward Unified,Anthony W. Ochoa Middle,Active,37.638836,-122.109686,2121 Depot Rd.,Hayward,CA,94545-2428
School,Alameda,Hayward Unified,Argonaut Elementary,Closed,,,1481 Fry Ln.,Hayward,CA,94545
School,Alameda,Hayward Unified,Bayside Seventh-day Adventist Christian,Active,37.643244,-122.081007,26400 Gading Rd.,Hayward,CA,94544-3617
School,Alameda,Hayward Unified,Baywood Elementary,Closed,,,21954 Dolores St.,Castro Valley,CA,94546
School,Alameda,Hayward Unified,Bidwell Elementary,Closed,,,175 Fairway St.,Hayward,CA,94544
School,Alameda,Hayward Unified,Bowman Elementary,Closed,37.641372,-122.062314,520 Jefferson St.,Hayward,CA,94544-4126
School,Alameda,Hayward Unified,Brenkwitz Elementary,Closed,,,2560 Darwin St.,Hayward,CA,94545
School,Alameda,Hayward Unified,Brenkwitz High,Active,37.671956,-122.098954,22100 Princeton St.,Hayward,CA,94541-3817
School,Alameda,Hayward Unified,Bret Harte Middle,Active,37.670265,-122.078992,1047 E St.,Hayward,CA,94540-5000
School,Alameda,Hayward Unified,Burbank Elementary,Active,37.667925,-122.094274,353 B St.,Hayward,CA,94541-6307
School,Alameda,Hayward Unified,California Crosspoint Academy,Active,37.636843,-122.114388,25500 Industrial Blvd.,Hayward,CA,94545-2352
School,Alameda,Hayward Unified,CAMELOT ELEM.,Closed,,,Information Redacted,HAYWARD,CA,94541
School,Alameda,Hayward Unified,Cedarwoods School,Closed,,,Information Redacted,Hayward,CA,94544
School,Alameda,Hayward Unified,Cesar Chavez Middle,Active,37.63698,-122.062771,27845 Whitman Rd.,Hayward,CA,94544-4752
School,Alameda,Hayward Unified,Chabot Children's Center,Closed,,,2184 Thayer Ave.,Hayward,CA,94545
School,Alameda,Hayward Unified,Cherryland Elementary,Active,37.672198,-122.094795,456 Laurel Ave.,Hayward,CA,94541-3831
School,Alameda,Hayward Unified,Children's Choice Educare,Closed,Information Redacted,Information Redacted,Information Redacted,Hayward,CA,94544-2741
School,Alameda,Hayward Unified,Cornerstone Christian Academy,Closed,,,Information Redacted,Hayward,CA,94545
School,Alameda,Hayward Unified,East Avenue Elementary,Active,37.67083,-122.054306,2424 East Ave.,Hayward,CA,94541-5634
School,Alameda,Hayward Unified,Eden Gardens Elementary,Active,37.638076,-122.107215,2184 Thayer Ave.,Hayward,CA,94545-2925
School,Alameda,Hayward Unified,Eldridge Elementary,Active,37.63684,-122.0853,26825 Eldridge Ave.,Hayward,CA,94544-3729
School,Alameda,Hayward Unified,Elmhurst Learning Center,Closed,Information Redacted,Information Redacted,Information Redacted,Hayward,CA,94544-1308
School,Alameda,Hayward Unified,Eureka Elementary,Closed,,,28000 Calaroga Ave.,Hayward,CA,94545
School,Alameda,Hayward Unified,Fairview Elementary,Active,37.680799,-122.052053,23515 Maud Ave.,Hayward,CA,94541-4519
School,Alameda,Hayward Unified,Faith Ringgold School of Arts and Science,Active,37.676269,-122.07396,1570 Ward St.,Hayward,CA,94541-3030
School,Alameda,Hayward Unified,Gansberger Elem.,Closed,,,26011 Kay Ave.,Hayward,CA,94545
School,Alameda,Hayward Unified,Glassbrook Elementary,Active,37.640942,-122.080844,975 Schafer Rd.,Hayward,CA,94544-3614
School,Alameda,Hayward Unified,Golden Oak Montessori of Hayward,Closed,37.687804,-122.069737,2652 Vergil Ct.,Castro Valley,CA,94546-6402
School,Alameda,Hayward Unified,Harder Elementary,Active,37.675672,-122.098462,585 Willow Ave.,Hayward,CA,94541-2424
School,Alameda,Hayward Unified,Hayward Adult,Active,37.672622,-122.098147,22100 Princeton St.,Hayward,CA,94540-0001
School,Alameda,Hayward Unified,Hayward High,Active,37.672677,-122.069923,1633 East Ave.,Hayward,CA,94541-5314
School,Alameda,Hayward Unified,Hayward Twin Oaks Montessori,Active,37.672093,-122.098035,22100 Princeton St.,Hayward,CA,94541-3817
School,Alameda,Hayward Unified,Hayward Unified Alternative Education,Closed,,,24411 Amador St.,Hayward,CA,94540-5000
School,Alameda,Hayward Unified,Helen Turner Children's Center,Merged,,,23640 Reed Way,Hayward,CA,94541
School,Alameda,Hayward Unified,Highland,Closed,37.661939,-122.057923,2021 Highland Blvd.,Hayward,CA,94540-0001
School,Alameda,Hayward Unified,Highland Elementary,Closed,,,2021 Highland Blvd.,Hayward,CA,94540-0001
School,Alameda,Hayward Unified,Hillcrest Elementary,Closed,,,951 Palisade St.,Hayward,CA,94542
School,Alameda,Hayward Unified,Impact Academy of Arts & Technology,Closed,37.631317,-122.10254,2560 Darwin St.,Hayward,CA,94545-3451
School,Alameda,Hayward Unified,Impact Academy of Arts & Technology,Active,37.63089,-122.102918,2560 Darwin St.,Hayward,CA,94545-3451
School,Alameda,Hayward Unified,John Muir Elementary,Closed,,,24823 Soto Rd.,Hayward,CA,94544-1931
School,Alameda,Hayward Unified,JOY EDUCATIONAL CENTER,Closed,,,Information Redacted,San Leandro,CA,94577
School,Alameda,Hayward Unified,Kimball Elem.,Closed,,,1130 Kimball Ave.,Hayward,CA,94541
School,Alameda,Hayward Unified,Knowledge Enlightens You (KEY) Academy,Active,37.67694,-122.072139,1570 Ward St.,Hayward,CA,94541-3030
School,Alameda,Hayward Unified,Laurel Elementary,Closed,,,2652 Vergil Ct.,Castro Valley,CA,94546
School,Alameda,Hayward Unified,Lea's Christian,Active,37.674323,-122.126438,17200  Via Magdalena,San Lorenzo,CA,94580-2928
School,Alameda,Hayward Unified,Leadership Public Schools - Hayward,Active,37.624193,-122.087903,28000 Calaroga Ave.,Hayward,CA,94545-4600
School,Alameda,Hayward Unified,Liber Community School,Closed,,,Information Redacted,Hayward,CA,94541
School,Alameda,Hayward Unified,LIGHTHOUSE ACADEMY,Closed,,,Information Redacted,HAYWARD,CA,94541
School,Alameda,Hayward Unified,Longwood Elementary,Active,37.659052,-122.110106,850 Longwood Ave.,Hayward,CA,94541-7151
School,Alameda,Hayward Unified,Lorin A. Eden Elementary,Active,37.624161,-122.100083,27790 Portsmouth Ave.,Hayward,CA,94545-4013
School,Alameda,Hayward Unified,Markham Elementary,Closed,,,1570 Ward St.,Hayward,CA,94541-3030
School,Alameda,Hayward Unified,"Martin Luther King, Jr. Middle",Active,37.634611,-122.092547,26890 Holly Hill Ave.,Hayward,CA,94545-3500
School,Alameda,Hayward Unified,Mohrland Elem.,Closed,,,1800 West St.,Hayward,CA,94545
School,Alameda,Hayward Unified,Montessori Children's,Closed,,,Information Redacted,Hayward,CA,94541
School,Alameda,Hayward Unified,Montessori Children's House of Hayward,Active,37.637716,-122.10295,26236 Adrian Ave,Hayward,CA,94545-3004
School,Alameda,Hayward Unified,Moreau Catholic High School,Active,37.644419,-122.060088,27170 Mission Blvd.,Hayward,CA,94544-4135
School,Alameda,Hayward Unified,Mt. Eden High,Active,37.625313,-122.090566,2300 Panama St.,Hayward,CA,94545-4662
School,Alameda,Hayward Unified,Northstar School,Active,37.688609,-122.054174,22502 Woodroe Ave.,Hayward,CA,94541-3411
School,Alameda,Hayward Unified,onereason inc.,Closed,Information Redacted,Information Redacted,Information Redacted,Hayward,CA,94541-1050
School,Alameda,Hayward Unified,Palma Ceia Elementary,Active,37.627195,-122.085254,27679 Melbourne Ave.,Hayward,CA,94545-4723
School,Alameda,Hayward Unified,Park Children's Center,Closed,,,411 Larchmont St.,Hayward,CA,94544
School,Alameda,Hayward Unified,Park Elementary,Active,37.652934,-122.094062,411 Larchmont St.,Hayward,CA,94540-1103
School,Alameda,Hayward Unified,Peaceful Learning,Closed,,,Information Redacted,Hayward,CA,94545
School,Alameda,Hayward Unified,Peixoto Childrens Center,Merged,,,29150 Ruus Rd.,Hayward,CA,94544
School,Alameda,Hayward Unified,Peixoto Elem,Closed,,,29150 Ruus Rd.,Hayward,CA,94544
School,Alameda,Hayward Unified,Ruus Elementary,Active,37.627366,-122.073632,28027 Dickens Ave.,Hayward,CA,94540-5639
School,Alameda,Hayward Unified,Saint Clement Catholic School,Active,37.642596,-122.058038,790 Calhoun St.,Hayward,CA,94544-4202
School,Alameda,Hayward Unified,Schafer Park Elementary,Active,37.642916,-122.087342,26268 Flamingo Ave.,Hayward,CA,94544-3159
School,Alameda,Hayward Unified,Sequoia Elementary,Closed,,,384 Ocie Way,Hayward,CA,94541
School,Alameda,Hayward Unified,Shepherd Elementary,Closed,,,27211 Tyrrell Ave.,Hayward,CA,94544-4509
School,Alameda,Hayward Unified,Sorensen Elementary,Closed,,,275 Goodwin St.,Hayward,CA,94544
School,Alameda,Hayward Unified,Southgate Elementary,Active,37.639048,-122.094447,26601 Calaroga Ave.,Hayward,CA,94545-3121
School,Alameda,Hayward Unified,Special Education-Preschool-Laurel,Active,37.687804,-122.069737,2652 Vergil Ct.,Castro Valley,CA,94546-6402
School,Alameda,Hayward Unified,Spectrum Schools Mission Valley Campus,Active,37.662066,-122.057966,2021 Highland Blvd,Hayward,CA,94542-1100
School,Alameda,Hayward Unified,St. Bede Catholic School,Active,37.638487,-122.079618,26910 Patrick Ave.,Hayward,CA,94544-3851
School,Alameda,Hayward Unified,St. Joachim's Elementary,Active,37.663264,-122.115837,21250 Hesperian Blvd.,Hayward,CA,94541-5809
School,Alameda,Hayward Unified,Stellar Preparatory High School,Active,37.672048,-122.083535,913 B St.,Hayward,CA,94506-5109
School,Alameda,Hayward Unified,Stonebrae Elementary,Active,37.654731,-122.020477,28761 Hayward Blvd.,Hayward,CA,94542-2213
School,Alameda,Hayward Unified,Strobridge Elementary,Closed,37.687487,-122.087469,21400 Bedford Dr.,Castro Valley,CA,94546-6805
School,Alameda,Hayward Unified,Strobridge Elementary,Merged,,,21400 Bedford Dr.,Castro Valley,CA,94546
School,Alameda,Hayward Unified,Strobridge High,Merged,,,"21400 Bedford, Castro Valley",Hayward,CA,94540
School,Alameda,Hayward Unified,Sunset High,Closed,,,22100 Princeton St.,Hayward,CA,94541
School,Alameda,Hayward Unified,Tennyson Elementary (Sed),Merged,,,680 West Tennyson Rd.,Hayward,CA,94544
School,Alameda,Hayward Unified,Tennyson High,Active,37.642546,-122.065969,27035 Whitman Rd.,Hayward,CA,94544-4099
School,Alameda,Hayward Unified,Thomas Martial Arts & Fitness Academy,Active,37.646069,-122.12284,2196 American Ave.,Hayward,CA,94545-1804
School,Alameda,Hayward Unified,Treeview Elementary,Active,37.624163,-122.036571,30565 Treeview St.,Hayward,CA,94544-7458
School,Alameda,Hayward Unified,Tyrrell Elementary,Active,37.637402,-122.075431,27000 Tyrrell Ave.,Hayward,CA,94540-0001
School,Alameda,Hayward Unified,Tyrrell Junior High,Closed,,,27000 Tyrrell Ave.,Hayward,CA,94544
School,Alameda,Hayward Unified,Veritas Christian,Closed,,,Information Redacted,Hayward,CA,94545
School,Alameda,Hayward Unified,Victory Academy,Closed,Information Redacted,Information Redacted,Information Redacted,Castro Valley,CA,94546-3926
School,Alameda,Hayward Unified,Winton Grove Elementary,Closed,,,23640 Reed Way,Hayward,CA,94541
School,Alameda,Hayward Unified,Winton Middle,Active,37.660347,-122.090954,119 Winton Ave.,Hayward,CA,94540-5000
School,Alameda,Hayward-Newhaven,Hayward-Newhaven Rop/Roc,Closed,,,26316 Hesperian Blvd.,Hayward,CA,94541
School,Alameda,Livermore Valley Joint Unified,Acton Academy East Bay,Closed,Information Redacted,Information Redacted,Information Redacted,Livermore,CA,94551-7570
School,Alameda,Livermore Valley Joint Unified,Almond Avenue Elementary,Closed,,,1401 Almond Ave.,Livermore,CA,94550-5029
School,Alameda,Livermore Valley Joint Unified,Alphonso Ladd Elem (TMR),Closed,,,2820 Ladd Ave.,Livermore,CA,94550
School,Alameda,Livermore Valley Joint Unified,Altamont Creek Elementary,Active,37.722319,-121.718383,6500 Garaventa Ranch Rd.,Livermore,CA,94551-8701
School,Alameda,Livermore Valley Joint Unified,Andrew N. Christensen Middle,Active,37.726489,-121.728528,5757 Haggin Oaks Ave.,Livermore,CA,94551-1100
School,Alameda,Livermore Valley Joint Unified,Arroyo Mocho Elementary,Closed,,,1040 Florence Rd.,Livermore,CA,94550-1880
School,Alameda,Livermore Valley Joint Unified,Arroyo Seco Elementary,Active,37.68367,-121.728546,5280 Irene Way,Livermore,CA,94550-3508
School,Alameda,Livermore Valley Joint Unified,Cambridge Academy,Closed,Information Redacted,Information Redacted,Information Redacted,Livermore,CA,94551-1801
School,Alameda,Livermore Valley Joint Unified,Celebration Academy,Closed,Information Redacted,Information Redacted,Information Redacted,Livermore,CA,94551-1333
School,Alameda,Livermore Valley Joint Unified,Del Valle Continuation High,Active,37.678902,-121.76674,2253 Fifth St.,Livermore,CA,94550-4549
School,Alameda,Livermore Valley Joint Unified,East Avenue Middle,Active,37.679821,-121.750056,3951 East Ave.,Livermore,CA,94550-4830
School,Alameda,Livermore Valley Joint Unified,Elite Self Defense Private School,Active,37.680833,-121.767785,2247 Second St.,Livermore,CA,94550-4572
School,Alameda,Livermore Valley Joint Unified,Emma C. Smith Elementary,Active,37.667168,-121.796406,391 Ontario Dr.,Livermore,CA,94550-5249
School,Alameda,Livermore Valley Joint Unified,Fifth Street Elementary,Closed,,,2253 Fifth St.,Livermore,CA,94550
School,Alameda,Livermore Valley Joint Unified,GRACE ACADEMY,Closed,,,Information Redacted,LIVERMORE,CA,94551-3582
School,Alameda,Livermore Valley Joint Unified,Granada High,Active,37.675206,-121.789841,400 Wall St.,Livermore,CA,94550-4066
School,Alameda,Livermore Valley Joint Unified,Green Elementary,Closed,,,715 Laughlin Rd.,Livermore,CA,94550
School,Alameda,Livermore Valley Joint Unified,Holy Cross Lutheran,Closed,,,Information Redacted,Livermore,CA,94550
School,Alameda,Livermore Valley Joint Unified,Jackson Avenue Elementary,Active,37.684923,-121.742629,554 Jackson Ave.,Livermore,CA,94550-3434
School,Alameda,Livermore Valley Joint Unified,Joe Michell,Active,37.669568,-121.783508,1001 Elaine Ave.,Livermore,CA,94550-5414
School,Alameda,Livermore Valley Joint Unified,Junction Avenue Middle,Closed,37.687022,-121.767041,298 Junction Ave.,Livermore,CA,94551-5903
School,Alameda,Livermore Valley Joint Unified,Junction K-8,Active,37.687022,-121.767041,298 Junction Ave.,Livermore,CA,94551-5903
School,Alameda,Livermore Valley Joint Unified,King's Classical Academy,Active,37.660089,-121.78403,945 Concannon Blvd,Livermore,CA,94550-6482
School,Alameda,Livermore Valley Joint Unified,Lawrence Elementary,Active,37.690107,-121.770575,2451 Portola Ave.,Livermore,CA,94551-1756
School,Alameda,Livermore Valley Joint Unified,Leo R. Croce Elementary,Active,37.717069,-121.728331,5650 Scenic Ave.,Livermore,CA,94551-1224
School,Alameda,Livermore Valley Joint Unified,Livermore Adult,Active,37.676878,-121.740364,1401 Almond Ave.,Livermore,CA,94550
School,Alameda,Livermore Valley Joint Unified,Livermore High,Active,37.680526,-121.76173,600 Maple St.,Livermore,CA,94550-3298
School,Alameda,Livermore Valley Joint Unified,Livermore Valley Academy,Closed,Information Redacted,Information Redacted,Information Redacted,Livermore,CA,94551
School,Alameda,Livermore Valley Joint Unified,Livermore Valley Charter,Closed,37.704857,-121.818412,3142 Constitution Dr.,Livermore,CA,94551-7570
School,Alameda,Livermore Valley Joint Unified,Livermore Valley Charter Preparatory High,Closed,37.706796,-121.815368,3090 Independence Dr.,Livermore,CA,94551-9493
School,Alameda,Livermore Valley Joint Unified,Maitland R. Henry Elementary,Closed,,,680 Alameda Dr.,Livermore,CA,94550
School,Alameda,Livermore Valley Joint Unified,Marylin Avenue Elementary,Active,37.683866,-121.786037,800 Marylin Ave.,Livermore,CA,94551-6514
School,Alameda,Livermore Valley Joint Unified,Our Savior Lutheran School,Active,37.671547,-121.752717,"1385 South Livermore Ave., 1385 South Livermore Ave.",Livermore,CA,94550
School,Alameda,Livermore Valley Joint Unified,Phoenix High (Continuation),Closed,37.678902,-121.76674,2253 Fifth St.,Livermore,CA,94550-4549
School,Alameda,Livermore Valley Joint Unified,Rancho Las Positas Elementary,Active,37.688959,-121.804274,401 East Jack London Blvd.,Livermore,CA,94551-1853
School,Alameda,Livermore Valley Joint Unified,Red Ranch School House,Active,37.735367,-121.808683,5500 Collier Canyon Rd,Livermore,CA,94551-9103
School,Alameda,Livermore Valley Joint Unified,Rincon Avenue Elementary,Closed,,,1251 Rincon Ave.,Livermore,CA,94550
School,Alameda,Livermore Valley Joint Unified,Selah Christian School,Closed,,,Information Redacted,Livermore,CA,94550
School,Alameda,Livermore Valley Joint Unified,Sequoia Christian,Closed,,,Information Redacted,Livermore,CA,94550-4550
School,Alameda,Livermore Valley Joint Unified,Sidney Perine,Closed,Information Redacted,Information Redacted,Information Redacted,Livermore,CA,94550
School,Alameda,Livermore Valley Joint Unified,Sierra School at Lawrence,Active,37.690076,-121.770611,2451 Portola Ave,Livermore,CA,94551-1756
School,Alameda,Livermore Valley Joint Unified,Sierra School at Livermore HIgh School,Active,37.680816,-121.761531,600 Maple St.,Livermore,CA,94550-3242
School,Alameda,Livermore Valley Joint Unified,Sonoma Drive Elementary,Closed,,,543 Sonoma Ave.,Livermore,CA,94550
School,Alameda,Livermore Valley Joint Unified,Sonrise Christian Academy,Active,37.764073,-121.443164,11176 W Larch Rd,Tracy,CA,95304-1510
School,Alameda,Livermore Valley Joint Unified,Special Education Preschool,Closed,37.717048,-121.727619,5650 Senic Ave.,Livermore,CA,94551
School,Alameda,Livermore Valley Joint Unified,Squaw Valley Academy Bay Area,Closed,Information Redacted,Information Redacted,Information Redacted,Livermore,CA,94551-9493
School,Alameda,Livermore Valley Joint Unified,St. Michael School,Active,37.682808,-121.763672,345 Church St.,Livermore,CA,94550-3205
School,Alameda,Livermore Valley Joint Unified,STARS Middle School - Mendenhall,Closed,,,Information Redacted,Livermore,CA,94550-6215
School,Alameda,Livermore Valley Joint Unified,STIVERS LIVERMORE VALLEY ACADE,Closed,,,Information Redacted,Livermore,CA,94550
School,Alameda,Livermore Valley Joint Unified,Sunset Christian School,Closed,,,Information Redacted,Livermore,CA,94550
School,Alameda,Livermore Valley Joint Unified,Sunset Elementary,Active,37.662609,-121.77335,1671 Frankfurt Way,Livermore,CA,94550-6146
School,Alameda,Livermore Valley Joint Unified,Valley Montessori School,Active,37.695883,-121.771657,1273 N. Livermore Ave.,Livermore,CA,94551-1707
School,Alameda,Livermore Valley Joint Unified,Verity Academy East Bay,Active,37.720035,-121.746573,2156 Bluebell Dr.,Livermore,CA,94551-5406
School,Alameda,Livermore Valley Joint Unified,Vine and Branches Christian Schools,Closed,Information Redacted,Information Redacted,Information Redacted,Livermore,CA,94550-4946
School,Alameda,Livermore Valley Joint Unified,Vineyard Alternative,Active,37.677172,-121.739878,1401 Almond Ave.,Livermore,CA,94550-5043
School,Alameda,Livermore Valley Joint Unified,Vineyard Christian,Closed,,,Information Redacted,Livermore,CA,94550-4550
School,Alameda,Livermore Valley Joint Unified,William Mendenhall Middle,Active,37.664505,-121.792215,1701 El Padro Dr.,Livermore,CA,94550-6215
School,Alameda,Mission Valley ROC/P,"David W. Gordon,Govt. Affairs",Closed,,,PO Box 944272,Sacramento,CA,94244
School,Alameda,Mission Valley ROC/P,Mission Valley ROCP,Active,37.527997,-121.983478,5019 Stevenson Blvd.,Fremont,CA,94538-2449
School,Alameda,Mountain House Elementary,Mountain House Elementary,Active,37.787242,-121.577291,3950 Mountain House Rd.,Byron,CA,94514-1920
School,Alameda,Murray Elementary,Cronin Elementary,Merged,,,6901 York Dr.,Dublin,CA,94568
School,Alameda,Murray Elementary,Donlon Elementary,Merged,37.684961,-121.906959,4150 Dorman Rd.,Pleasanton,CA,94566
School,Alameda,Murray Elementary,Dublin Elementary,Merged,37.714327,-121.936894,7997 Vomac Rd.,Dublin,CA,94566
School,Alameda,Murray Elementary,Fallon Elementary,Merged,,,7425 Larkdale Ave.,Dublin,CA,94566
School,Alameda,Murray Elementary,Frederiksen Elementary,Merged,37.71483,-121.922138,7243 Tamarack Dr.,Dublin,CA,94568
School,Alameda,Murray Elementary,Lydiksen Elementary,Merged,37.680955,-121.92157,7700 Highland Oaks Dr.,Pleasanton,CA,94566
School,Alameda,Murray Elementary,Murray Elementary,Merged,37.721435,-121.932618,8435 Davona Dr.,Dublin,CA,94566
School,Alameda,Murray Elementary,Nielsen Elementary,Merged,,,7500 Amarillo Dr.,Dublin,CA,94568
School,Alameda,Murray Elementary,Wells Intermediate,Merged,37.710517,-121.918726,6800 Penn Dr.,Dublin,CA,94568
School,Alameda,New Haven Unified,Alternative Learning Academy at Conley-Caraballo High,Active,37.61521,-122.028759,541 Blanche St.,Hayward,CA,94544-7700
School,Alameda,New Haven Unified,Alvarado Elementary,Active,37.595622,-122.076932,31100 Fredi St.,Union City,CA,94587-2662
School,Alameda,New Haven Unified,American Heritage Christian,Closed,,,Information Redacted,Hayward,CA,94544
School,Alameda,New Haven Unified,Barnard-White Middle,Closed,,,725 Whipple Rd.,Union City,CA,94587-1343
School,Alameda,New Haven Unified,Cabello Student Support Center,Closed,37.586155,-122.076548,4500 Cabello St.,Union City,CA,94587
School,Alameda,New Haven Unified,Casa De Esperanza Christian School,Closed,Information Redacted,Information Redacted,Information Redacted,Union City,CA,94587-5111
School,Alameda,New Haven Unified,Cesar Chavez Middle,Active,37.590189,-122.047354,2801 Hop Ranch Rd.,Union City,CA,94587-5708
School,Alameda,New Haven Unified,Core Learning Academy at Conley-Caraballo High,Active,37.61521,-122.028759,541 Blanche St.,Hayward,CA,94544-7700
School,Alameda,New Haven Unified,Decoto Elementary,Closed,,,600 G St.,Union City,CA,94587-2400
School,Alameda,New Haven Unified,Decoto School for Independent Study,Active,37.606993,-122.027106,725 Whipple Rd.,Union City,CA,94587-2400
School,Alameda,New Haven Unified,Delaine Eastin Elementary,Active,37.566838,-122.074837,34901 Eastin Dr.,Union City,CA,94587-5577
School,Alameda,New Haven Unified,East Bay Home School,Closed,Information Redacted,Information Redacted,Information Redacted,Union City,CA,94587-2847
School,Alameda,New Haven Unified,El Rancho Verde Elementary,Closed,,,33480 Western Ave.,Union City,CA,94587
School,Alameda,New Haven Unified,El Rancho Verde High (Cont.),Closed,,,,,,
School,Alameda,New Haven Unified,Guy Jr. Emanuele Elementary,Active,37.602005,-122.015926,100 Decoto Rd.,Union City,CA,94587-3572
School,Alameda,New Haven Unified,Hillview Crest Elementary,Active,37.614362,-122.036279,31410 Wheelon Ave.,Hayward,CA,94544-7662
School,Alameda,New Haven Unified,Itliong-Vera Cruz,Active,37.591746,-122.080362,31604 Alvarado Blvd.,Union City,CA,94587-5802
School,Alameda,New Haven Unified,James Logan High,Active,37.592494,-122.02604,1800 H St.,Union City,CA,94587-3321
School,Alameda,New Haven Unified,Manuel White Elem.,Closed,,,370 Tamarack Dr.,Union City,CA,94587
School,Alameda,New Haven Unified,Mission Hills Middle School,Active,37.607976,-122.027079,250 Tamarack Dr.,Union City,CA,94587-1311
School,Alameda,New Haven Unified,New Haven Adult School at Decoto,Active,37.606993,-122.027106,725 Whipple Rd.,Union City,CA,94587-3321
School,Alameda,New Haven Unified,New Haven Community Day,Closed,37.588425,-122.025312,34200 Alvarado-Niles Rd.,Union City,CA,94587-4714
School,Alameda,New Haven Unified,New Haven Continuation High Sc,Closed,,,1800 H St.,Union City,CA,94587
School,Alameda,New Haven Unified,Our Lady of the Rosary,Closed,Information Redacted,Information Redacted,Information Redacted,Union City,CA,94587-2141
School,Alameda,New Haven Unified,Pioneer Elementary,Active,37.572076,-122.071677,32737 Bel Aire St.,Union City,CA,94587-5500
School,Alameda,New Haven Unified,Purple Lotus School,Closed,Information Redacted,Information Redacted,Information Redacted,Union City,CA,94587-2316
School,Alameda,New Haven Unified,Searles Elementary,Active,37.596063,-122.027178,33629 15th St.,Union City,CA,94587-3322
School,Alameda,New Haven Unified,SEMORE,Closed,,,Information Redacted,UNION CITY,CA,94587
School,Alameda,New Haven Unified,Seneca Family of Agencies - Pathfinder Academy,Active,37.599914,-122.019946,600 G St.,Union City,CA,94587-2400
School,Alameda,New Haven Unified,Spectrum Center - New Haven,Closed,,,Information Redacted,Union City,CA,94587-4714
School,Alameda,New Haven Unified,Tom Kitayama Elementary,Active,37.601467,-122.049792,1959 Sunsprite Dr.,Union City,CA,94587-1995
School,Alameda,New Haven Unified,Union City Christian School,Active,37.591455,-122.034305,33700 Alvarado Niles Rd.,Union City,CA,94587-4300
School,Alameda,Newark Unified,August Schilling Elementary,Active,37.528261,-122.04613,36901 Spruce St.,Newark,CA,94560-2719
School,Alameda,Newark Unified,Birch Grove Intermediate,Active,37.533967,-122.022466,37490 Birch St.,Newark,CA,94560-4140
School,Alameda,Newark Unified,Birch Grove Primary,Active,37.529248,-122.015082,6071 Smith Ave.,Newark,CA,94560-4536
School,Alameda,Newark Unified,Bridgepoint High (Continuation),Active,37.550558,-122.037799,35753 Cedar Blvd.,Newark,CA,94560-5007
School,Alameda,Newark Unified,Challenger School - Newark,Active,37.521716,-121.997992,39600 Cedar Blvd.,Newark,CA,94560-5487
School,Alameda,Newark Unified,Challenger School – Ardenwood,Active,37.546591,-122.053379,35487 Dumbarton Ct.,Newark,CA,94560-1100
School,Alameda,Newark Unified,Coyote Hills Elementary,Active,37.538506,-122.042397,36270 Cherry St.,Newark,CA,94560-2318
School,Alameda,Newark Unified,Crossroads High (Alternative),Active,37.550558,-122.037799,35753 Cedar Blvd.,Newark,CA,94560-1324
School,Alameda,Newark Unified,E. L. Musick Elementary,Active,37.542292,-122.031696,5735 Musick Ave.,Newark,CA,94560-2554
School,Alameda,Newark Unified,H. A. Snow Elementary,Closed,37.542892,-122.050461,6580 Mirabeau Dr.,Newark,CA,94560-1121
School,Alameda,Newark Unified,John F. Kennedy Elementary,Active,37.551671,-122.042473,35430 Blackburn Dr.,Newark,CA,94560-1312
School,Alameda,Newark Unified,Kids For Christ,Closed,,,Information Redacted,Newark,CA,94560
School,Alameda,Newark Unified,Lincoln Elementary,Active,37.535889,-122.051954,36111 Bettencourt St.,Newark,CA,94560-2101
School,Alameda,Newark Unified,MacGregor (John I.) Intermedia,Closed,,,35753 Cedar Blvd.,Newark,CA,94560
School,Alameda,Newark Unified,Muller (F. A.) Elementary,Closed,,,36840 Cherry St.,Newark,CA,94560
School,Alameda,Newark Unified,New Beginnings Academy,Closed,37.550537,-122.037678,35777 Cedar Blvd.,Newark,CA,94560
School,Alameda,Newark Unified,Newark Adult,Active,37.550611,-122.037938,35777 Cedar Blvd.,Newark,CA,94560-1848
School,Alameda,Newark Unified,Newark Independent Study,Closed,,,Cedar,Newark,CA,94560
School,Alameda,Newark Unified,Newark Junior High,Merged,,,6201 Lafayette Ave.,Newark,CA,94560
School,Alameda,Newark Unified,Newark Junior High,Active,37.542979,-122.036855,6201 Lafayette Ave.,Newark,CA,94560-2432
School,Alameda,Newark Unified,Newark Memorial High,Active,37.522095,-122.001754,39375 Cedar Blvd.,Newark,CA,94560-5007
School,Alameda,Newark Unified,Newark Opportunity,Closed,,,6201 Lafayette Ave.,Newark,CA,94560
School,Alameda,Newark Unified,Progressive Academy,Closed,37.550537,-122.037678,35777 Cedar Blvd.,Newark,CA,94560
School,Alameda,Newark Unified,Ruschin (Louis) Elementary,Closed,,,36120 Ruschin Dr.,Newark,CA,94560
School,Alameda,Newark Unified,Silva (M. D.) Intermediate,Closed,,,6135 Thornton Ave.,Newark,CA,94560
School,Alameda,Newark Unified,St. Edward Parish,Active,37.539558,-122.027673,"5788 Thornton Ave., Bldg. D",Newark,CA,94560-3826
School,Alameda,Newark Unified,Stellar Academy for Dyslexics,Active,37.517001,-122.004268,39399 Cherry St,Newark,CA,94560-4902
School,Alameda,Newark Unified,Whiteford (June) Spec. Ed. Preschool,Closed,,,35725 Cedar Blvd.,Newark,CA,94560
School,Alameda,Newark Unified,Whiteford (June) Special Education Preschool,Active,37.550664,-122.039305,35725 Cedar Blvd.,Newark,CA,94560-1324
School,Alameda,Newark Unified,Young Champions,Active,37.521637,-121.996984,39682 Cedar Blvd,Newark,CA,94560-5487
School,Alameda,Oakland Unified,100 Black Men of the Bay Area Community,Closed,37.745418,-122.140672,3400 Malcolm Ave.,Oakland,CA,94607-1404
School,Alameda,Oakland Unified,Achieve Academy,Active,37.782076,-122.226714,1700 28th Ave.,Oakland,CA,94621-2455
School,Alameda,Oakland Unified,ACORN Woodland Elementary,Closed,,,1025 - 81st Ave.,Oakland,CA,94621
School,Alameda,Oakland Unified,ACORN Woodland Elementary,Active,37.752862,-122.186055,1025 81st Ave.,Oakland,CA,94621-2455
School,Alameda,Oakland Unified,Acts Christian Academy,Closed,Information Redacted,Information Redacted,Information Redacted,Oakland,CA,94621-3536
School,Alameda,Oakland Unified,Adult Evening,Closed,,,2455 Church St.,Oakland,CA,94605
School,Alameda,Oakland Unified,Agnes Memorial Christian Academy,Active,37.782811,-122.234523,2372 International Blvd,Oakland,CA,94601-1019
School,Alameda,Oakland Unified,AIMS College Prep Elementary,Active,37.800368,-122.265486,171 12th St.,Oakland,CA,94607-4900
School,Alameda,Oakland Unified,AIMS College Prep High,Active,37.811503,-122.249055,746 Grand Ave.,Oakland,CA,94607-2714
School,Alameda,Oakland Unified,AIMS College Prep Middle,Active,37.800095,-122.265476,171 12th St.,Oakland,CA,94607-4900
School,Alameda,Oakland Unified,All Aspects Academy,Active,37.963842,-121.992008,"4498 Treat Blvd., #1077",Concord,CA,94521-2704
School,Alameda,Oakland Unified,Allendale Elementary,Active,37.788642,-122.20516,3670 Penniman Ave.,Oakland,CA,94619-1116
School,Alameda,Oakland Unified,Alliance Academy,Closed,37.746372,-122.166097,1800 98th Ave.,Oakland,CA,94603-2702
School,Alameda,Oakland Unified,ARISE High,Active,37.776162,-122.225068,"3301 East 12th St., Ste. 205",Oakland,CA,94601-2940
School,Alameda,Oakland Unified,Arts (Alternative),Closed,,,5263 Broadway Terr.,Oakland,CA,94618-1418
School,Alameda,Oakland Unified,Arts School,Merged,,,5263 Broadway Ter.,Oakland,CA,94618
School,Alameda,Oakland Unified,ASA Academy,Closed,,,Information Redacted,Oakland,CA,94608
School,Alameda,Oakland Unified,ASCEND,Active,37.774031,-122.221665,3709 East 12th St.,Oakland,CA,94601-4001
School,Alameda,Oakland Unified,Aspire Berkley Maynard Academy,Active,37.844798,-122.284166,6200 San Pablo Ave.,Oakland,CA,94608-2228
School,Alameda,Oakland Unified,Aspire College Academy,Active,37.761272,-122.170905,8030 Atherton St.,Oakland,CA,94605-3430
School,Alameda,Oakland Unified,Aspire ERES Academy,Closed,37.775676,-122.212063,1936 Courtland Ave.,Oakland,CA,94601-4614
School,Alameda,Oakland Unified,Aspire Golden State College Preparatory Academy,Active,37.759099,-122.198076,1009 66th Ave.,Oakland,CA,94610-3430
School,Alameda,Oakland Unified,Aspire Lionel Wilson College Preparatory Academy,Active,37.729387,-122.180485,400 105th Ave.,Oakland,CA,94603-2968
School,Alameda,Oakland Unified,Aspire Millsmont Academy,Closed,37.774289,-122.182344,3200 62nd Ave.,Oakland,CA,94605-1614
School,Alameda,Oakland Unified,Aspire Monarch Academy,Active,37.742304,-122.168332,1445 101st Ave.,Oakland,CA,94603-3207
School,Alameda,Oakland Unified,Aspire Triumph Technology Academy,Active,37.773956,-122.18252,3200 62nd Ave.,Oakland,CA,94605-1614
School,Alameda,Oakland Unified,Atherton Academy,Closed,,,Information Redacted,Oakland,CA,94605
School,Alameda,Oakland Unified,Aurora School,Active,37.840037,-122.231514,40 Dulwich Rd.,Oakland,CA,94618-2200
School,Alameda,Oakland Unified,Barack Obama Academy,Closed,37.751222,-122.157098,9736 Lawlor St.,Oakland,CA,94605
School,Alameda,Oakland Unified,Bay Area Holistic Academy,Closed,,,Information Redacted,Oakland,CA,94609
School,Alameda,Oakland Unified,Bay Area Technology,Active,37.766251,-122.154398,8251 Fontaine St.,Oakland,CA,94605-4109
School,Alameda,Oakland Unified,Baywood Learning Centers,Active,37.789553,-122.165612,12500 Campus Dr.,Oakland,CA,94619-3107
School,Alameda,Oakland Unified,Beacon School dba Beacon Day School,Closed,Information Redacted,Information Redacted,Information Redacted,Oakland,CA,94606-5218
School,Alameda,Oakland Unified,Bella Vista Elementary,Active,37.800355,-122.237088,1025 East 28th St.,Oakland,CA,94610-4018
School,Alameda,Oakland Unified,Bentley School,Active,37.85307,-122.23375,One Hiller Dr.,Oakland,CA,94618-2301
School,Alameda,Oakland Unified,Bishop O'Dowd High School,Active,37.753258,-122.154747,9500 Stearns Ave.,Oakland,CA,94605-4720
School,Alameda,Oakland Unified,Blackhouse Village (B.V.) College Prep A,Closed,,,Information Redacted,Oakland,CA,94605
School,Alameda,Oakland Unified,Bret Harte Middle,Active,37.800579,-122.206522,3700 Coolidge Ave.,Oakland,CA,94602-3309
School,Alameda,Oakland Unified,Bridgemount Academy,Closed,,,Information Redacted,Oakland,CA,94609
School,Alameda,Oakland Unified,Bridges @ Melrose Academy Elementary,Active,37.767781,-122.206531,1325 53rd Ave.,Oakland,CA,94601-5728
School,Alameda,Oakland Unified,Brookfield Elementary,Active,37.734711,-122.189002,401 Jones Ave.,Oakland,CA,94603-1123
School,Alameda,Oakland Unified,Bunche Continuation High,Closed,,,1240 18th St.,Oakland,CA,94607-2223
School,Alameda,Oakland Unified,Burbank Elem.,Closed,,,3550 64th Ave.,Oakland,CA,94605
School,Alameda,Oakland Unified,Burbank Elementary,Closed,,,3550 64th Ave.,Oakland,CA,94605-1802
School,Alameda,Oakland Unified,Burbank Preschool Center,Active,37.775669,-122.177625,3550 64th Ave.,Oakland,CA,94605-1802
School,Alameda,Oakland Unified,Burckhalter Elementary,Active,37.775578,-122.166791,3994 Burckhalter Ave.,Oakland,CA,94605-2616
School,Alameda,Oakland Unified,Business and Information Technology High,Closed,,,8601 MacArthur Blvd.,Oakland,CA,94605-4037
School,Alameda,Oakland Unified,"Business, Entrepreneurial School of Technology High",Closed,37.817864,-122.278634,2607 Myrtle St.,Oakland,CA,94607
School,Alameda,Oakland Unified,California College Preparatory Academy,Closed,,,6200 San Pablo Ave.,Oakland,CA,94608
School,Alameda,Oakland Unified,Calvin Simmons Middle,Closed,,,2101 35th Ave.,Oakland,CA,94601-3124
School,Alameda,Oakland Unified,Candell's College Preparatory School,Closed,,,Information Redacted,Oakland,CA,94605
School,Alameda,Oakland Unified,Carl B. Munck Elementary,Active,37.794753,-122.173828,11900 Campus Dr.,Oakland,CA,94619-3104
School,Alameda,Oakland Unified,Carter Middle,Closed,,,4521 Webster St.,Oakland,CA,94609-2140
School,Alameda,Oakland Unified,Castlemont Evening High,Closed,,,8601 Macarthur Blvd.,Oakland,CA,94605
School,Alameda,Oakland Unified,Castlemont High,Active,37.759536,-122.162913,8601 MacArthur Blvd.,Oakland,CA,94605-4037
School,Alameda,Oakland Unified,Castlemont Junior Academy,Closed,37.758313,-122.162367,8711 MacArthur Blvd.,Oakland,CA,94605-4000
School,Alameda,Oakland Unified,Castlemont Primary Academy,Closed,37.758313,-122.162367,8711 MacArthur Blvd.,Oakland,CA,94605-4000
School,Alameda,Oakland Unified,Chabot Elementary,Active,37.850664,-122.242938,6686 Chabot Rd.,Oakland,CA,94618-1641
School,Alameda,Oakland Unified,City Reachers Academy,Closed,Information Redacted,Information Redacted,Information Redacted,Oakland,CA,94605
School,Alameda,Oakland Unified,Civicorps Corpsmember Academy,Closed,37.798779,-122.28556,101 Myrtle St.,Oakland,CA,94607-2507
School,Alameda,Oakland Unified,Civicorps Elementary,Closed,37.847128,-122.28359,1086 Alcatraz Ave.,Oakland,CA,94608-1265
School,Alameda,Oakland Unified,Civicorps Middle,Closed,37.847128,-122.28359,1086 Alcatraz Ave.,Oakland,CA,94608
School,Alameda,Oakland Unified,Clara Mohammed,Closed,,,Information Redacted,Oakland,CA,94601
School,Alameda,Oakland Unified,Claremont Middle,Active,37.845752,-122.251842,5750 College Ave.,Oakland,CA,94618-1629
School,Alameda,Oakland Unified,Clawson Elementary,Closed,,,1025 Second Ave.,Oakland,CA,94606
School,Alameda,Oakland Unified,Clawson Senior High,Closed,,,3315 Magnolia St.,Oakland,CA,94608
School,Alameda,Oakland Unified,Cleveland Elementary,Active,37.804369,-122.24405,745 Cleveland St.,Oakland,CA,94606-1513
School,Alameda,Oakland Unified,Cole Middle,Closed,,,1011 Union St.,Oakland,CA,94607-2236
School,Alameda,Oakland Unified,Coliseum College Prep Academy,Active,37.761975,-122.193376,1390 66th Ave.,Oakland,CA,94621-3506
School,Alameda,Oakland Unified,College Preparatory and Architecture Academy,Closed,37.773786,-122.209929,4610 Foothill Blvd.,Oakland,CA,93601
School,Alameda,Oakland Unified,Community Day,Closed,37.78844,-122.178031,4917 Mountain Blvd.,Oakland,CA,94619-3014
School,Alameda,Oakland Unified,Community Day Middle,Closed,37.78844,-122.178031,4917 Mountain Blvd.,Oakland,CA,94619-3014
School,Alameda,Oakland Unified,Community School of the East Bay,Closed,,,Information Redacted,Oakland,CA,94611-4611
School,Alameda,Oakland Unified,Conservatory of Vocal/Instrumental Arts,Closed,37.800277,-122.186422,3800 Mountain Blvd.,Oakland,CA,94619-1630
School,Alameda,Oakland Unified,Conservatory of Vocal/Instrumental Arts High,Closed,37.789553,-122.165612,"12500 Campus Dr., Bldg. D",Oakland,CA,94619-3107
School,Alameda,Oakland Unified,Cornerstone Christian Academy,Closed,Information Redacted,Information Redacted,Information Redacted,Oakland,CA,94619-1308
School,Alameda,Oakland Unified,Cristo Rey De La Salle East Bay High School,Active,37.77879,-122.222526,1530 34Th Ave,Oakland,CA,94601-3024
School,Alameda,Oakland Unified,Crocker Highlands Elementary,Active,37.811364,-122.227385,525 Midcrest Rd.,Oakland,CA,94610-1813
School,Alameda,Oakland Unified,Deecolonize Academy,Active,37.763889,-122.165137,8032 Macarthur Blvd,Oakland,CA,94621-3548
School,Alameda,Oakland Unified,DeeColonize Academy,Closed,Information Redacted,Information Redacted,Information Redacted,Oakland,CA,94605-3548
School,Alameda,Oakland Unified,Development Center for Handica,Closed,,,,,,
School,Alameda,Oakland Unified,Development Center for the Handicapped,Closed,,,2920 E. 18th St.,Oakland,CA,94601
School,Alameda,Oakland Unified,Dewey Academy High,Active,37.796705,-122.258174,1111 2nd Ave.,Oakland,CA,94606-2285
School,Alameda,Oakland Unified,Doulos Academy,Closed,Information Redacted,Information Redacted,Information Redacted,Oakland,CA,94611-1932
School,Alameda,Oakland Unified,Downtown Charter Academy,Active,37.779542,-122.240277,2000 Dennison St.,Oakland,CA,94606-5201
School,Alameda,Oakland Unified,Dr. Herbert Guice Christian Academy,Closed,Information Redacted,Information Redacted,Information Redacted,Oakland,CA,94621
School,Alameda,Oakland Unified,E.M. University of Science & Technology,Closed,,,,,,
School,Alameda,Oakland Unified,East Bay Activity Center,Closed,,,,,,
School,Alameda,Oakland Unified,East Bay Innovation Academy,Active,37.746172,-122.141218,3400 Malcolm Ave.,Oakland,CA,94605-5353
School,Alameda,Oakland Unified,East Oakland Community High,Closed,,,8251 Fontaine St.,Oakland,CA,94605
School,Alameda,Oakland Unified,East Oakland Leadership Academy,Closed,37.77184,-122.189863,2614 Seminary Ave.,Oakland,CA,94605-1570
School,Alameda,Oakland Unified,East Oakland Leadership Academy High,Closed,37.771809,-122.190195,2607 Seminary Ave.,Oakland,CA,94605
School,Alameda,Oakland Unified,East Oakland Pride Elementary,Active,37.759065,-122.174458,8000 Birch St.,Oakland,CA,94621-2123
School,Alameda,Oakland Unified,East Oakland School of the Arts,Closed,,,8601 MacArthur Blvd.,Oakland,CA,94605
School,Alameda,Oakland Unified,East Oakland Street Academy,Closed,,,609 98th Ave.,Oakland,CA,94603
School,Alameda,Oakland Unified,Eastside Continuation High,Closed,,,6701 East 14th St.,Oakland,CA,94621-3501
School,Alameda,Oakland Unified,Edison Elementary,Closed,,,3239 Kempton Ave.,Oakland,CA,94611
School,Alameda,Oakland Unified,Edna Brewer Middle,Active,37.803854,-122.229545,3748 13th Ave.,Oakland,CA,94610-2820
School,Alameda,Oakland Unified,Edward Shands Adult,Closed,37.818663,-122.278947,2607 Myrtle St.,Oakland,CA,94607
School,Alameda,Oakland Unified,Elijah's University for Self-Development,Closed,,,,,,
School,Alameda,Oakland Unified,Elmhurst Middle,Closed,,,1800 98th Ave.,Oakland,CA,94603-2702
School,Alameda,Oakland Unified,Elmhurst United Middle,Active,37.746372,-122.166097,1800 98th Ave.,Oakland,CA,94603-2702
School,Alameda,Oakland Unified,Emerson Elementary,Active,37.834628,-122.257306,4803 Lawton Ave.,Oakland,CA,94609-2208
School,Alameda,Oakland Unified,EnCompass Academy Elementary,Active,37.752862,-122.186055,1025 81st Ave.,Oakland,CA,94621-2455
School,Alameda,Oakland Unified,Escuela Bilingüe Internacional,Active,37.850698,-122.256938,410 Alcatraz Ave.,Oakland,CA,94609-1106
School,Alameda,Oakland Unified,Escuelita Del Bosque,Closed,Information Redacted,Information Redacted,Information Redacted,Oakland,CA,94602
School,Alameda,Oakland Unified,Esperanza Elementary,Active,37.737501,-122.173556,10315 E St.,Oakland,CA,94603-3133
School,Alameda,Oakland Unified,Explore Middle,Closed,37.775697,-122.177477,3550 64th Ave.,Oakland,CA,94605-1802
School,Alameda,Oakland Unified,Far West,Closed,37.837197,-122.249235,5263 Broadway Terr.,Oakland,CA,94618-1418
School,Alameda,Oakland Unified,Foster  Elementary,Closed,,,2850 West St.,Oakland,CA,94608-4536
School,Alameda,Oakland Unified,Francophone Charter School of Oakland,Active,37.751364,-122.157294,9736 Lawlor St.,Oakland,CA,94605-4735
School,Alameda,Oakland Unified,Franklin Elementary,Active,37.793794,-122.248292,915 Foothill Blvd.,Oakland,CA,94606-3013
School,Alameda,Oakland Unified,Fred Finch–Oakland Hills Academy,Active,37.800363,-122.205667,3800 Coolidge Ave.,Oakland,CA,94602-3399
School,Alameda,Oakland Unified,Fred T. Korematsu Discovery Academy Elementary,Active,37.737501,-122.173556,10315 E St.,Oakland,CA,94603-3133
School,Alameda,Oakland Unified,Fremont Federation,Closed,,,4610 Foothill Blvd.,Oakland,CA,94601
School,Alameda,Oakland Unified,Fremont High,Active,37.7744,-122.209724,4610 Foothill Blvd.,Oakland,CA,94601-4618
School,Alameda,Oakland Unified,Frick United Academy of Language Middle,Active,37.771513,-122.183499,2845 64th Ave.,Oakland,CA,94605-2027
School,Alameda,Oakland Unified,Fruitvale Elementary,Active,37.796228,-122.214071,3200 Boston Ave.,Oakland,CA,94602-2899
School,Alameda,Oakland Unified,Futures Elementary,Closed,37.761424,-122.191887,6701 International Blvd.,Oakland,CA,94621-3501
School,Alameda,Oakland Unified,Garfield Elementary,Active,37.786684,-122.235788,1640 22nd Ave.,Oakland,CA,94606-4710
School,Alameda,Oakland Unified,Gateway to College High at Laney College,Active,37.797155,-122.263779,900 Fallon St.,Oakland,CA,94607-4808
School,Alameda,Oakland Unified,Glenview Elementary,Active,37.805477,-122.218775,4215 La Cresta Ave.,Oakland,CA,94602-1739
School,Alameda,Oakland Unified,Global Family Elementary,Active,37.779349,-122.213259,2035 40th Ave.,Oakland,CA,94601-4203
School,Alameda,Oakland Unified,Golden Gate Academy,Closed,,,Information Redacted,Oakland,CA,94619-4619
School,Alameda,Oakland Unified,Golden Gate Elementary,Closed,,,6200 San Pablo Ave.,Oakland,CA,94608-2228
School,Alameda,Oakland Unified,Gramajo-Veliz School,Closed,Information Redacted,Information Redacted,Information Redacted,Oakland,CA,94621-3345
School,Alameda,Oakland Unified,Grand Lake Montessori,Active,37.816096,-122.250904,466 Chetwood St.,Oakland,CA,94610-2649
School,Alameda,Oakland Unified,Grant Senior High,Closed,,,417 29th St.,Oakland,CA,94609
School,Alameda,Oakland Unified,Grass Valley Elementary,Active,37.75301,-122.125853,4720 Dunkirk Ave.,Oakland,CA,94605-5607
School,Alameda,Oakland Unified,Greenleaf,Active,37.764386,-122.194849,6328 East 17th St.,Oakland,CA,94621-3832
School,Alameda,Oakland Unified,Growing Children Charter,Closed,,,8000 International Blvd.,Oakland,CA,94621
School,Alameda,Oakland Unified,Growing Light Montessori School,Active,37.809869,-122.200602,4700 Lincoln Ave.,Oakland,CA,94602-2535
School,Alameda,Oakland Unified,Hammarskjold (Dag) Opportunity,Closed,,,9655 Empire Rd.,Oakland,CA,94603
School,Alameda,Oakland Unified,Havenscourt Middle,Closed,,,1390 66th Ave.,Oakland,CA,94621-3506
School,Alameda,Oakland Unified,Hawthorne (Deaf),Closed,,,1700 28th Ave.,Oakland,CA,94601
School,Alameda,Oakland Unified,Hawthorne Elementary,Closed,,,1700 28th Ave.,Oakland,CA,94601-2455
School,Alameda,Oakland Unified,Head-Royce School,Active,37.808926,-122.204924,4315 Lincoln Ave.,Oakland,CA,94602-2528
School,Alameda,Oakland Unified,Hillcrest,Active,37.840442,-122.232872,30 Marguerite Dr.,Oakland,CA,94618-2230
School,Alameda,Oakland Unified,Hillside Academy,Closed,37.759698,-122.166731,2369 84th Ave.,Oakland,CA,94605
School,Alameda,Oakland Unified,Holy Names High School,Active,37.839411,-122.231037,4660 Harbord Dr.,Oakland,CA,94618-2211
School,Alameda,Oakland Unified,Home and Hospital Program,Active,37.807767,-122.289417,1011 Union St.,Oakland,CA,94607-4808
School,Alameda,Oakland Unified,Hoover Elementary,Active,37.822947,-122.27445,890 Brockhurst St.,Oakland,CA,94608-4318
School,Alameda,Oakland Unified,Horace Mann Elementary,Active,37.77355,-122.202455,5222 Ygnacio Ave.,Oakland,CA,94601-5422
School,Alameda,Oakland Unified,Horizon,Closed,,,Information Redacted,Oakland,CA,94605
School,Alameda,Oakland Unified,Huerta (Dolores) Learning Academy,Closed,,,1936 Courtland Ave.,Oakland,CA,94601
School,Alameda,Oakland Unified,I.Q.R.A.A. Educational Academy & Services,Closed,Information Redacted,Information Redacted,Information Redacted,Oakland,CA,94605-2108
School,Alameda,Oakland Unified,IC Community School,Closed,Information Redacted,Information Redacted,Information Redacted,Oakland,CA,94602-2413
School,Alameda,Oakland Unified,Ile Omode School,Closed,Information Redacted,Information Redacted,Information Redacted,Oakland,CA,94621-1112
School,Alameda,Oakland Unified,"Independent Study, Sojourner Truth",Active,37.766765,-122.153532,8251 Fontaine St.,Oakland,CA,94605-4109
School,Alameda,Oakland Unified,Infant and Preschool Program,Active,37.775283,-122.177222,3550 64th Ave.,Oakland,CA,94605-1802
School,Alameda,Oakland Unified,International Community Elementary,Active,37.78008,-122.230503,2825 International Blvd.,Oakland,CA,94601-1543
School,Alameda,Oakland Unified,Jefferson Elementary,Closed,,,2035 40th Ave.,Oakland,CA,94601-4203
School,Alameda,Oakland Unified,Joaquin Miller Elementary,Active,37.818545,-122.201777,5525 Ascot Dr.,Oakland,CA,94611-3001
School,Alameda,Oakland Unified,Julia Morgan School for Girls,Active,37.804364,-122.271114,"5000 MacArthur Blvd., PMB 9966",Oakland,CA,94613-1301
School,Alameda,Oakland Unified,Junior Space Exploration Academy,Closed,,,2722 Adeline St.,Oakland,CA,94607
School,Alameda,Oakland Unified,Kaiser Elementary,Closed,37.853077,-122.23181,25 South Hill Ct.,Oakland,CA,94618-2306
School,Alameda,Oakland Unified,Kdol-T.V.,Closed,,,314 East Tenth St.,Oakland,CA,94606
School,Alameda,Oakland Unified,King Estates Middle,Closed,,,8251 Fontaine St.,Oakland,CA,94605-4109
School,Alameda,Oakland Unified,KIPP Bridge Academy,Active,37.810323,-122.279161,1700 Market St.,Oakland,CA,94607-3230
School,Alameda,Oakland Unified,KIPP Bridge College Preparatory,Closed,,,991 14th St.,Oakland,CA,94607
School,Alameda,Oakland Unified,Kizmet Academy Middle,Closed,,,2607 Myrtle St.,Oakland,CA,94607
School,Alameda,Oakland Unified,La Cheim School Oakland,Closed,,,Information Redacted,Oakland,CA,94608
School,Alameda,Oakland Unified,La Escuelita,Active,37.796004,-122.257279,1100 Third Ave.,Oakland,CA,94606-2227
School,Alameda,Oakland Unified,Lafayette Opportunity,Merged,,,1700 Market St.,Oakland,CA,94607
School,Alameda,Oakland Unified,Lakeview Elementary,Closed,37.810949,-122.248296,746 Grand Ave.,Oakland,CA,94610-2714
School,Alameda,Oakland Unified,LAMBO Academy International,Active,37.799122,-122.268269,"900 Alice St, #10",Oakland,CA,94607-4480
School,Alameda,Oakland Unified,Laurel Elementary,Active,37.79307,-122.196644,3750 Brown Ave.,Oakland,CA,94619-1406
School,Alameda,Oakland Unified,Leadership Preparatory High,Closed,,,8601 MacArthur Blvd.,Oakland,CA,94605-4037
School,Alameda,Oakland Unified,Leadership Preparatory High,Closed,,,8601 MacArthur Blvd.,Oakland,CA,94605-4037
School,Alameda,Oakland Unified,Learning Without Limits,Active,37.779349,-122.213259,2035 40th Ave.,Oakland,CA,94601-4203
School,Alameda,Oakland Unified,LIFE Academy,Active,37.784286,-122.216764,2101 35th Ave.,Oakland,CA,94601-3124
School,Alameda,Oakland Unified,Life Challenges Academy,Closed,,,Information Redacted,Oakland,CA,94601
School,Alameda,Oakland Unified,Lighthouse Community Charter,Active,37.73705,-122.196639,444 Hegenberger St.,Oakland,CA,94621-1418
School,Alameda,Oakland Unified,Lighthouse Community Charter High,Active,37.73705,-122.196639,444 Hegenberger Rd.,Oakland,CA,94621-1418
School,Alameda,Oakland Unified,Lincoln Child Center,Closed,Information Redacted,Information Redacted,Information Redacted,Oakland,CA,94602
School,Alameda,Oakland Unified,Lincoln Elementary,Active,37.80011,-122.267151,225 11th St.,Oakland,CA,94607-4409
School,Alameda,Oakland Unified,Lockwood Elementary,Closed,,,6701 International Blvd.,Oakland,CA,94621
School,Alameda,Oakland Unified,Lockwood STEAM Academy Elementary,Active,37.761424,-122.191887,6701 International Blvd.,Oakland,CA,94621-3501
School,Alameda,Oakland Unified,Lodestar: A Lighthouse Community Charter Public,Active,37.734234,-122.178528,701 105th Ave.,Oakland,CA,94603
School,Alameda,Oakland Unified,Logan Mac Primary School,Closed,Information Redacted,Information Redacted,Information Redacted,Oakland,CA,94612-4466
School,Alameda,Oakland Unified,Longfellow Elementary,Closed,,,3877 Lusk St.,Oakland,CA,94608-3822
School,Alameda,Oakland Unified,Lotus Agriculture and Technology Academy,Closed,,,6441 Herzog St.,Oakland,CA,94608
School,Alameda,Oakland Unified,Lotus Blossom Academy,Closed,,,Information Redacted,Oakland,CA,94607
School,Alameda,Oakland Unified,Lowell Middle,Closed,,,991 14th St.,Oakland,CA,94607-3230
School,Alameda,Oakland Unified,LPS College Park,Closed,37.759536,-122.162913,"8601 MacArthur Blvd., Bldg. 100",Oakland,CA,94605-4037
School,Alameda,Oakland Unified,LPS Oakland R & D Campus,Active,37.759536,-122.162913,"8601 MacArthur Blvd., Bldg. 100",Oakland,CA,94605-4037
School,Alameda,Oakland Unified,LUXOR ACADEMY,Closed,,,Information Redacted,Oakland,CA,94610
School,Alameda,Oakland Unified,Madison Opportunity,Closed,,,400 Capistrano,Oakland,CA,94603
School,Alameda,Oakland Unified,Madison Park Academy 6-12,Active,37.727775,-122.179182,400 Capistrano Dr.,Oakland,CA,94603-3520
School,Alameda,Oakland Unified,Madison Park Academy Elementary,Active,37.728041,-122.177498,470 El Paseo Dr.,Oakland,CA,94603-3565
School,Alameda,Oakland Unified,Mandela High,Closed,37.773786,-122.209929,4610 Foothill Blvd.,Oakland,CA,94601
School,Alameda,Oakland Unified,Manzanita Community Elementary,Active,37.792204,-122.223903,2409 East 27th St.,Oakland,CA,94601-1303
School,Alameda,Oakland Unified,Manzanita Opportunity,Closed,,,2701 22nd Ave.,Oakland,CA,94601
School,Alameda,Oakland Unified,Manzanita SEED Elementary,Active,37.792204,-122.223903,2409 East 27th St.,Oakland,CA,94601-1303
School,Alameda,Oakland Unified,Markham Elementary,Active,37.765296,-122.178873,7220 Krause Ave.,Oakland,CA,94605-2380
School,Alameda,Oakland Unified,Marshall Elementary,Closed,37.74693,-122.140586,3400 Malcolm Ave.,Oakland,CA,94605-5353
School,Alameda,Oakland Unified,"Martin Luther King, Jr. Elementary",Active,37.80568,-122.282984,960 Tenth St.,Oakland,CA,94607-3106
School,Alameda,Oakland Unified,Maxwell Park International Academy,Closed,37.779657,-122.197104,4730 Fleming Ave.,Oakland,CA,94619-2515
School,Alameda,Oakland Unified,McClymonds Evening High,Closed,,,2607 Myrtle St.,Oakland,CA,94607
School,Alameda,Oakland Unified,McClymonds High,Active,37.817864,-122.278634,2607 Myrtle St.,Oakland,CA,94607-3415
School,Alameda,Oakland Unified,McClymonds Senior High,Closed,,,2607 Myrtle St.,Oakland,CA,94607-3415
School,Alameda,Oakland Unified,Media College Preparatory,Closed,37.773786,-122.209929,4610 Foothill Blvd.,Oakland,CA,94601-4618
School,Alameda,Oakland Unified,Melrose Leadership Academy,Active,37.780326,-122.197794,4730 Fleming Ave.,Oakland,CA,94619-2515
School,Alameda,Oakland Unified,Mentoring Academy,Active,37.848021,-122.252418,5951B  College Ave.,Oakland,CA,94618
School,Alameda,Oakland Unified,Meroe International Academy Charter,Closed,,,5433 San Pablo Ave.,Oakland,CA,94608
School,Alameda,Oakland Unified,Merritt Middle College High (Alternative),Closed,,,12500 Campus Dr.,Oakland,CA,94607
School,Alameda,Oakland Unified,MetWest High,Active,37.795107,-122.258236,314 East Tenth St.,Oakland,CA,94606-2302
School,Alameda,Oakland Unified,Mills College Children's School,Active,37.780921,-122.182631,5000 MacArthur Blvd.,Oakland,CA,94613-1301
School,Alameda,Oakland Unified,MLK / Lafayette Elementary,Closed,37.808393,-122.282724,991 14th St.,Oakland,CA,94607-3230
School,Alameda,Oakland Unified,Montclair Elementary,Active,37.831092,-122.21281,1757 Mountain Blvd.,Oakland,CA,94611-2259
School,Alameda,Oakland Unified,Montera Middle,Active,37.818785,-122.201604,5555 Ascot Dr.,Oakland,CA,94611-3001
School,Alameda,Oakland Unified,Montessori Children's Center,Closed,,,3668 Dimond Ave.,Oakland,CA,94602
School,Alameda,Oakland Unified,Mosswood Elementary,Closed,,,1025 Second Ave.,Oakland,CA,94606
School,Alameda,Oakland Unified,Muhammad Institute,Closed,,,,,,
